{
  "version": 0.6,
  "generator": "Overpass API 0.7.62.7 375dc00a",
  "osm3s": {
    "timestamp_osm_base": "2025-07-01T21:03:35Z",
    "timestamp_areas_base": "2025-06-25T21:32:45Z",
    "copyright": "The data included in this document is from www.openstreetmap.org. The data is made available under ODbL."
  },
  "elements": [
    {
      "type": "node",
      "id": 71525550,
      "lat": 47.5679494,
      "lon": 7.595093,
      "tags": {
        "addr:city": "Basel",
        "addr:housenumber": "165",
        "addr:postcode": "4057",
        "addr:street": "Oetlingerstrasse",
        "amenity": "restaurant",
        "name": "Restaurant Zum Wilde Maa",
        "opening_hours": "Tu-Fr 18:30-24:00; Sa 18:30-24:00",
        "website": "https://zumwildemaa.ch/",
        "wheelchair": "no"
      }
    },
    {
      "type": "node",
      "id": 71525553,
      "lat": 47.5692427,
      "lon": 7.5944428,
      "tags": {
        "amenity": "restaurant",
        "name": "Firenze"
      }
    },
    {
      "type": "node",
      "id": 71525570,
      "lat": 47.5692456,
      "lon": 7.5938822,
      "tags": {
        "amenity": "cafe",
        "name": "Senat Maki's"
      }
    },
    {
      "type": "node",
      "id": 71525588,
      "lat": 47.5698877,
      "lon": 7.5916214,
      "tags": {
        "amenity": "restaurant",
        "name": "Pizzeria Breisacherhof"
      }
    },
    {
      "type": "node",
      "id": 71525604,
      "lat": 47.5675379,
      "lon": 7.5903738,
      "tags": {
        "addr:city": "Basel",
        "addr:housenumber": "64",
        "addr:postcode": "4057",
        "addr:street": "Oetlingerstrasse",
        "amenity": "restaurant",
        "cuisine": "regional",
        "email": "eintracht@megableu.ch",
        "indoor_seating": "yes",
        "internet_access": "no",
        "internet_access:fee": "no",
        "name": "Eintracht",
        "opening_hours": "Mo off; Tu-Fr 08:30-24:00; Sa 09:30-24:00; Su 10:30-14:00",
        "operator": "Fam. Torzi",
        "outdoor_seating": "yes",
        "phone": "+41 61 691 44 10",
        "smoking": "outside",
        "website": "https://www.megableu.ch/",
        "wheelchair": "no"
      }
    },
    {
      "type": "node",
      "id": 71525611,
      "lat": 47.5677788,
      "lon": 7.5906834,
      "tags": {
        "addr:city": "Basel",
        "addr:housename": "Gatto Nero",
        "addr:housenumber": "63",
        "addr:postcode": "4057",
        "addr:street": "Oetlingerstrasse",
        "amenity": "restaurant",
        "cuisine": "italian;regional",
        "indoor_seating": "yes",
        "internet_access": "no",
        "name": "Gatto Nero",
        "note": "Open Wed - Fri: 11:00 am - 2:00 pm, 5:00 pm - 9:30 pm Sat: 11:00 am - 10:00 pm",
        "opening_hours": "We-Fr 11:00-14:00,17:00-21:30; Sa 11:00-22:00",
        "outdoor_seating": "yes",
        "phone": "+41 61 681 50 56",
        "smoking": "outside",
        "takeaway": "no",
        "website": "https://www.facebook.com/gattonerobasel/",
        "wheelchair": "no"
      }
    },
    {
      "type": "node",
      "id": 75940582,
      "lat": 47.5656669,
      "lon": 7.5956372,
      "tags": {
        "amenity": "restaurant",
        "check_date": "2024-08-28",
        "name": "Zum Goldenen Fass",
        "opening_hours": "Tu-Th 18:30-24:00, Fr,Sa 18:30-01:00; Su,Mo off",
        "payment:cash": "yes",
        "payment:credit_cards": "yes",
        "payment:debit_cards": "yes",
        "website": "https://www.goldenes-fass.ch/",
        "wheelchair": "no"
      }
    },
    {
      "type": "node",
      "id": 107678669,
      "lat": 47.5415318,
      "lon": 7.5937327,
      "tags": {
        "addr:city": "Basel",
        "addr:housenumber": "192",
        "addr:postcode": "4053",
        "addr:street": "Dornacherstrasse",
        "amenity": "restaurant",
        "cuisine": "regional",
        "description": "Dine without light in the dark. Service by blind Professionels. ",
        "name": "Halle7 Dunkelrestaurant Blinde Kuh",
        "opening_hours": "We-Fr 18:30-23:00, Sa 18:00-23:00",
        "outdoor_seating": "no",
        "smoking": "outside",
        "takeaway": "no",
        "wheelchair": "yes"
      }
    },
    {
      "type": "node",
      "id": 121991199,
      "lat": 47.5458622,
      "lon": 7.5864122,
      "tags": {
        "addr:housenumber": "100",
        "addr:street": "Güterstrasse",
        "amenity": "restaurant",
        "description": "Restaurant Schweizerisch/Thailändisch",
        "indoor_seating": "yes",
        "name": "100",
        "opening_hours": "Mo 10:00-14:00, 17:00-23:00; Tu-Th 10:00-14:00, 17:00-00:00; Fr 10:00-14:00, 17:00-01:00; Sa 16:00-23:00",
        "outdoor_seating": "yes",
        "phone": "+41612713158",
        "smoking": "outside",
        "website": "https://www.bar100.ch/"
      }
    },
    {
      "type": "node",
      "id": 122336608,
      "lat": 47.5665578,
      "lon": 7.5917694,
      "tags": {
        "amenity": "restaurant",
        "indoor_seating": "yes",
        "name": "Delfin",
        "outdoor_seating": "yes",
        "smoking": "outside"
      }
    },
    {
      "type": "node",
      "id": 122336670,
      "lat": 47.5642081,
      "lon": 7.5841104,
      "tags": {
        "amenity": "restaurant",
        "cuisine": "italian",
        "indoor_seating": "yes",
        "level": "0",
        "name": "Chez Donati",
        "opening_hours": "Mo-Sa 11:30-14:30,18:30-23:00",
        "operator": "Bindella",
        "outdoor_seating": "yes",
        "smoking": "outside",
        "website": "https://www.bindella.ch/de/chez-donati.html"
      }
    },
    {
      "type": "node",
      "id": 122336999,
      "lat": 47.5548054,
      "lon": 7.6020008,
      "tags": {
        "addr:city": "Basel",
        "addr:housenumber": "70",
        "addr:postcode": "4052",
        "addr:street": "St. Alban-Rheinweg",
        "amenity": "restaurant",
        "indoor_seating": "yes",
        "name": "Gasthof zum Goldenen Sternen",
        "opening_hours": "Mo-Su 11:00-23:30",
        "outdoor_seating": "yes",
        "phone": "+41 61 2721666",
        "smoking": "outside",
        "website": "https://www.sternen-basel.ch/"
      }
    },
    {
      "type": "node",
      "id": 122337395,
      "lat": 47.5637639,
      "lon": 7.591176,
      "tags": {
        "addr:city": "Basel",
        "addr:housenumber": "1b",
        "addr:postcode": "4057",
        "addr:street": "Klybeckstrasse",
        "amenity": "restaurant",
        "indoor_seating": "yes",
        "name": "Parterre One",
        "opening_hours": "Tu-Th 18:00-23:00; Fr-Sa 18:00-24:00",
        "outdoor_seating": "yes",
        "phone": "+41616958998",
        "smoking": "outside",
        "website": "https://www.parterre-one.ch/de/gastronomie/one-essen-trinken",
        "wheelchair": "limited"
      }
    },
    {
      "type": "node",
      "id": 122337399,
      "lat": 47.5592957,
      "lon": 7.5932323,
      "tags": {
        "addr:city": "Basel",
        "addr:housenumber": "45",
        "addr:postcode": "4058",
        "addr:street": "Rheingasse",
        "amenity": "restaurant",
        "craft": "brewery",
        "name": "Brauerei Fischerstube",
        "phone": "+41 61 692 9495",
        "website": "https://www.uelibier.ch/"
      }
    },
    {
      "type": "node",
      "id": 138310840,
      "lat": 47.5705197,
      "lon": 7.5962519,
      "tags": {
        "addr:city": "Basel",
        "addr:housenumber": "11",
        "addr:postcode": "4057",
        "addr:street": "Brombacherstrasse",
        "amenity": "restaurant",
        "indoor_seating": "yes",
        "name": "Brombi",
        "outdoor_seating": "yes",
        "smoking": "outside"
      }
    },
    {
      "type": "node",
      "id": 252822612,
      "lat": 47.5820238,
      "lon": 7.5920945,
      "tags": {
        "amenity": "restaurant",
        "contact:phone": "+41 61 6311820",
        "contact:website": "http://www.schiff-restaurant.ch/",
        "name": "Schiff",
        "opening_hours": "Mo-Fr 09:30-23:00; Sa,Su 10:00-23:00"
      }
    },
    {
      "type": "node",
      "id": 252822640,
      "lat": 47.5784321,
      "lon": 7.5900936,
      "tags": {
        "amenity": "restaurant",
        "name": "Bistro Kleinhüningen"
      }
    },
    {
      "type": "node",
      "id": 252822644,
      "lat": 47.5777086,
      "lon": 7.5896646,
      "tags": {
        "amenity": "restaurant",
        "name": "Stern Kebab"
      }
    },
    {
      "type": "node",
      "id": 252822645,
      "lat": 47.5772599,
      "lon": 7.5894129,
      "tags": {
        "amenity": "restaurant",
        "indoor_seating": "yes",
        "name": "Inselhof",
        "outdoor_seating": "yes",
        "smoking": "outside"
      }
    },
    {
      "type": "node",
      "id": 252822648,
      "lat": 47.5758885,
      "lon": 7.5890687,
      "tags": {
        "amenity": "cafe",
        "name": "nokta"
      }
    },
    {
      "type": "node",
      "id": 254097107,
      "lat": 47.5664559,
      "lon": 7.5928691,
      "tags": {
        "addr:housenumber": "74",
        "addr:street": "Feldbergstrasse",
        "amenity": "cafe",
        "cuisine": "italian",
        "level": "0",
        "name": "Da Graziella",
        "opening_hours": "Mo-Fr 07:00-18:00; Sa 07:00-17:00; Su 08:30-13:30",
        "outdoor_seating": "74",
        "website": "https://www.dagraziella.com/im-kleinbasel/",
        "website:menu": "https://www.dagraziella.com/wp-content/uploads/2023/02/Menukarte_230131.pdf",
        "wheelchair": "limited"
      }
    },
    {
      "type": "node",
      "id": 258889881,
      "lat": 47.5851678,
      "lon": 7.5923633,
      "tags": {
        "amenity": "restaurant",
        "contact:phone": "+41 61 6311400",
        "contact:website": "http://www.schifferhaus.ch/",
        "name": "Schifferhaus",
        "opening_hours": "Mo-Fr 11:30-14:30, 18:00-23:30; Sa 18:00-23:30"
      }
    },
    {
      "type": "node",
      "id": 258890774,
      "lat": 47.5772125,
      "lon": 7.5914239,
      "tags": {
        "amenity": "restaurant",
        "name": "Depot 14"
      }
    },
    {
      "type": "node",
      "id": 260266422,
      "lat": 47.5814987,
      "lon": 7.5934099,
      "tags": {
        "amenity": "restaurant",
        "indoor_seating": "yes",
        "name": "Rheinhafen",
        "outdoor_seating": "yes"
      }
    },
    {
      "type": "node",
      "id": 260266425,
      "lat": 47.5813861,
      "lon": 7.5935875,
      "tags": {
        "amenity": "cafe",
        "name": "Café Braam's"
      }
    },
    {
      "type": "node",
      "id": 260266671,
      "lat": 47.5872826,
      "lon": 7.5916119,
      "tags": {
        "amenity": "restaurant",
        "contact:phone": "+41 61 6310803",
        "contact:website": "http://www.rostigeranker.ch/",
        "name": "Zum rostigen Anker"
      }
    },
    {
      "type": "node",
      "id": 261052962,
      "lat": 47.5589657,
      "lon": 7.6122825,
      "tags": {
        "amenity": "restaurant",
        "indoor_seating": "yes",
        "name": "Bistro Restaurant Chez Jeannot",
        "outdoor_seating": "yes",
        "smoking": "outside",
        "toilets:wheelchair": "yes",
        "wheelchair": "yes"
      }
    },
    {
      "type": "node",
      "id": 262502093,
      "lat": 47.5659948,
      "lon": 7.5941398,
      "tags": {
        "addr:city": "Basel",
        "addr:housenumber": "2",
        "addr:postcode": "4057",
        "addr:street": "Mörsbergerstrasse",
        "amenity": "cafe",
        "cuisine": "regional",
        "delivery": "no",
        "description": "Gelateria",
        "level": "0",
        "name": "Acero",
        "opening_hours": "Mo off; Tu-Fr 09:00-24:00; Sa 10:00-24:00; Su 10:00-16:00",
        "smoking": "outside",
        "takeaway": "no",
        "website": "https://acero.ch",
        "wheelchair": "no"
      }
    },
    {
      "type": "node",
      "id": 266810611,
      "lat": 47.5761915,
      "lon": 7.5974297,
      "tags": {
        "amenity": "restaurant",
        "name": "Zur Schwarzen Kunst"
      }
    },
    {
      "type": "node",
      "id": 273223709,
      "lat": 47.5599416,
      "lon": 7.6115172,
      "tags": {
        "amenity": "restaurant",
        "indoor_seating": "yes",
        "name": "Pizzerie Ziegelhof",
        "opening_hours": "Tu-Fr 10:00-14:00,17:00-23:00; Sa 17:00-23:00; Su 17:00-22:00",
        "outdoor_seating": "yes",
        "smoking": "outside",
        "wheelchair": "limited"
      }
    },
    {
      "type": "node",
      "id": 279852803,
      "lat": 47.5650592,
      "lon": 7.6177751,
      "tags": {
        "amenity": "restaurant",
        "check_date:opening_hours": "2024-08-05",
        "name": "Bäumlihof",
        "opening_hours": "Mo-Sa 08:00-18:30, Sa 08:00-17:00",
        "wheelchair": "yes"
      }
    },
    {
      "type": "node",
      "id": 290725197,
      "lat": 47.5781618,
      "lon": 7.6240213,
      "tags": {
        "addr:city": "Basel",
        "addr:housenumber": "30",
        "addr:postcode": "4058",
        "addr:street": "Wildschutzweg",
        "amenity": "restaurant",
        "cuisine": "regional",
        "diet:halal": "no",
        "diet:vegan": "yes",
        "diet:vegetarian": "yes",
        "indoor_seating": "yes",
        "name": "Schliessi",
        "opening_hours": "Tu-Sa 09:00-22:00, Su 09:00-20:00",
        "outdoor_seating": "yes",
        "payment:credit_cards": "yes",
        "payment:debit_cards": "yes",
        "phone": "+41 61 6012420",
        "smoking": "separated",
        "website": "https://www.restaurant-schliessi.ch/",
        "wheelchair": "yes"
      }
    },
    {
      "type": "node",
      "id": 292057785,
      "lat": 47.5496409,
      "lon": 7.5802149,
      "tags": {
        "amenity": "restaurant",
        "cuisine": "thai",
        "diet:vegetarian": "yes",
        "indoor_seating": "yes",
        "name": "Sukhothai",
        "opening_hours": "Tu-Fr 11:30-14:00,18:00-23:00; Sa 18:00-23:00",
        "opening_hours:kitchen": "Tu-Fr 11:45-13:30,18:00-22:00; Sa 18:00-22:00",
        "outdoor_seating": "yes",
        "phone": "+41 61 283 20 20",
        "reservation": "recommended",
        "smoking": "outside",
        "website": "http://www.thairestaurant.ch/de/home/"
      }
    },
    {
      "type": "node",
      "id": 292058711,
      "lat": 47.5537008,
      "lon": 7.5774585,
      "tags": {
        "addr:city": "Basel",
        "addr:housenumber": "56",
        "addr:postcode": "4055",
        "addr:street": "Schützenmattstrasse",
        "amenity": "restaurant",
        "diet:vegetarian": "yes",
        "email": "restaurant@schuetzenhaus-basel.ch",
        "indoor_seating": "yes",
        "name": "Schützenhaus",
        "opening_hours": "Mo-Sa 10:30-23:00; Su 10:30-22:00",
        "opening_hours:kitchen": "Mo-Sa 11:30-14:00,18:00-22:00; Su 11:30-14:00,18:00-21:30",
        "outdoor_seating": "yes",
        "phone": "+41612726760",
        "smoking": "outside",
        "website": "https://schuetzenhaus-basel.ch/",
        "wheelchair": "yes"
      }
    },
    {
      "type": "node",
      "id": 292216544,
      "lat": 47.5498101,
      "lon": 7.5845322,
      "tags": {
        "amenity": "restaurant",
        "indoor_seating": "yes",
        "name": "Acqua",
        "outdoor_seating": "yes",
        "smoking": "outside"
      }
    },
    {
      "type": "node",
      "id": 292455543,
      "lat": 47.5562558,
      "lon": 7.5752419,
      "tags": {
        "addr:city": "Basel",
        "addr:housenumber": "118",
        "addr:postcode": "4055",
        "addr:street": "Spalenring",
        "amenity": "restaurant",
        "indoor_seating": "yes",
        "name": "Marmaris",
        "outdoor_seating": "yes",
        "phone": "+41 (0) 61 301 38 74",
        "smoking": "outside",
        "website": "https://www.restaurant-marmaris.ch/"
      }
    },
    {
      "type": "node",
      "id": 317816754,
      "lat": 47.5876375,
      "lon": 7.5892988,
      "tags": {
        "amenity": "restaurant",
        "contact:phone": "+41 61 5561510",
        "contact:website": "https://www.dreilaendereck-basel.ch/",
        "name": "Dreiländereck",
        "tourism": "attraction"
      }
    },
    {
      "type": "node",
      "id": 325789595,
      "lat": 47.5915763,
      "lon": 7.6472864,
      "tags": {
        "addr:housenumber": "51",
        "addr:street": "Weilstrasse",
        "amenity": "restaurant",
        "name": "Wiesengarten Musetti",
        "opening_hours": "We-Sa 11:30-14:00, 18:00-00:00; Su 11:30-14:00, 18:00-23:00",
        "website": "http://www.wiesengartenmusetti.ch/"
      }
    },
    {
      "type": "node",
      "id": 344752222,
      "lat": 47.5714563,
      "lon": 7.6648368,
      "tags": {
        "addr:housenumber": "6",
        "addr:street": "Brohegasse",
        "amenity": "restaurant",
        "diet:vegetarian": "yes",
        "email": "info@baslerhof-bettingen.ch",
        "name": "Baslerhof",
        "opening_hours": "Mo-Su 09:00-23:00",
        "phone": "+41 61 6032425",
        "website": "https://www.baslerhof-bettingen.ch"
      }
    },
    {
      "type": "node",
      "id": 357561870,
      "lat": 47.5767633,
      "lon": 7.5725138,
      "tags": {
        "addr:city": "Basel",
        "addr:housenumber": "260",
        "addr:postcode": "4056",
        "addr:street": "Elsässerstrasse",
        "amenity": "restaurant",
        "name": "Zollstübli",
        "wheelchair": "yes"
      }
    },
    {
      "type": "node",
      "id": 364938305,
      "lat": 47.5482134,
      "lon": 7.589679,
      "tags": {
        "addr:city": "Basel",
        "addr:housenumber": "9",
        "addr:postcode": "4051",
        "addr:street": "Centralbahnplatz",
        "alt_name": "ViCafe Centralbahnplatz",
        "amenity": "cafe",
        "branch": "Basel Centralbahnplatz",
        "diet:vegetarian": "yes",
        "indoor_seating": "no",
        "name": "ViCafe",
        "opening_hours": "Mo-Fr 06:30-17:00; Sa 09:00-17:00; Su off",
        "operator": "Vicafe Espresso Bars",
        "outdoor_seating": "no",
        "payment:credit_cards": "yes",
        "payment:debit_cards": "yes",
        "takeaway": "only",
        "website": "https://vicafe.ch/basel/",
        "wheelchair": "yes",
        "wheelchair:description": "Serving window serves straight to the sidewalk."
      }
    },
    {
      "type": "node",
      "id": 364938452,
      "lat": 47.5479389,
      "lon": 7.5906059,
      "tags": {
        "addr:city": "Basel",
        "addr:housenumber": "3",
        "addr:postcode": "4051",
        "addr:street": "Centralbahnplatz",
        "amenity": "restaurant",
        "indoor_seating": "yes",
        "name": "Le Train Bleu",
        "outdoor_seating": "yes",
        "smoking": "outside"
      }
    },
    {
      "type": "node",
      "id": 364939823,
      "lat": 47.5487806,
      "lon": 7.5900613,
      "tags": {
        "addr:city": "Basel",
        "addr:housenumber": "14",
        "addr:postcode": "4051",
        "addr:street": "Centralbahnplatz",
        "amenity": "cafe",
        "indoor_seating": "yes",
        "name": "Starbucks Centralbahnplatz",
        "outdoor_seating": "yes",
        "phone": "+41 61 2713933",
        "smoking": "outside",
        "website": "https://www.starbucks.ch/store-locator/search/location/Basel-Stadt%2C%20Schweiz/detail/1473",
        "wheelchair": "limited"
      }
    },
    {
      "type": "node",
      "id": 366084093,
      "lat": 47.5480755,
      "lon": 7.5906998,
      "tags": {
        "addr:city": "Basel",
        "addr:housenumber": "1",
        "addr:postcode": "4051",
        "addr:street": "Centralbahnplatz",
        "amenity": "restaurant",
        "cuisine": "asian",
        "indoor_seating": "yes",
        "name": "Mister Wong",
        "opening_hours": "Mo-Fr 11:00-21:00; Sa,Su 12:00-21:00",
        "outdoor_seating": "yes",
        "smoking": "outside",
        "wheelchair": "no"
      }
    },
    {
      "type": "node",
      "id": 385647957,
      "lat": 47.55231,
      "lon": 7.5938236,
      "tags": {
        "addr:city": "Basel",
        "addr:housenumber": "55",
        "addr:postcode": "4051",
        "addr:street": "Aeschenvorstadt",
        "amenity": "fast_food",
        "brand": "Burgermeister",
        "brand:wikidata": "Q116382535",
        "cuisine": "burger",
        "indoor_seating": "yes",
        "name": "Burgermeister",
        "opening_hours": "Mo-We 11:00-22:00; Th-Sa 11:00-23:00; Su 11:00-22:00",
        "outdoor_seating": "yes",
        "smoking": "outside",
        "takeaway": "yes",
        "website": "https://www.burger-meister.ch/locations/self-service-basel-aeschenvorstadt"
      }
    },
    {
      "type": "node",
      "id": 455940680,
      "lat": 47.5533905,
      "lon": 7.5952622,
      "tags": {
        "amenity": "fast_food",
        "name": "Imbiss Wacker und Schwob"
      }
    },
    {
      "type": "node",
      "id": 457333463,
      "lat": 47.5431685,
      "lon": 7.5946389,
      "tags": {
        "addr:city": "Basel",
        "addr:housenumber": "49",
        "addr:postcode": "4053",
        "addr:street": "Bruderholzstrasse",
        "amenity": "restaurant",
        "cuisine": "greek",
        "indoor_seating": "yes",
        "name": "Plato",
        "opening_hours": "Mo-We 11:30-14:00,17:30-23:00; Th-Fr 11:30-14:00,17:30-24:00; Sa 17:30-24:00",
        "outdoor_seating": "yes",
        "phone": "+41 61 363 19 76",
        "smoking": "outside",
        "website": "https://www.platokitchenbar.ch/"
      }
    },
    {
      "type": "node",
      "id": 457333518,
      "lat": 47.543543,
      "lon": 7.5928628,
      "tags": {
        "addr:city": "Basel",
        "addr:housenumber": "183",
        "addr:postcode": "4053",
        "addr:street": "Güterstrasse",
        "amenity": "restaurant",
        "cuisine": "italian",
        "email": "info@ristorante-valentino.ch",
        "indoor_seating": "yes",
        "name": "Ristorante Valentino",
        "opening_hours": "Tu-Fr 11:30-14:00,18:00-23:00, Sa 18:00-24:00",
        "outdoor_seating": "yes",
        "phone": "+41 61 506 85 22",
        "smoking": "outside",
        "website": "https://www.ristorante-valentino.ch/",
        "wheelchair": "no"
      }
    },
    {
      "type": "node",
      "id": 458833991,
      "lat": 47.5408945,
      "lon": 7.5919799,
      "tags": {
        "amenity": "cafe",
        "name": "Momo",
        "website": "https://momobasel.ch/cafe-momo",
        "wheelchair": "yes"
      }
    },
    {
      "type": "node",
      "id": 459572235,
      "lat": 47.5526427,
      "lon": 7.5911796,
      "tags": {
        "addr:city": "Basel",
        "addr:housenumber": "10",
        "addr:postcode": "4051",
        "addr:street": "Elisabethenstrasse",
        "air_conditioning": "no",
        "amenity": "cafe",
        "indoor_seating": "yes",
        "name": "Elisabethen",
        "opening_hours": "Tu-Fr 07:00-19:00; Sa, Su 10:00-18:00",
        "outdoor_seating": "yes",
        "smoking": "outside",
        "toilets:wheelchair": "no",
        "wheelchair": "yes"
      }
    },
    {
      "type": "node",
      "id": 473398645,
      "lat": 47.5547076,
      "lon": 7.6031676,
      "tags": {
        "addr:city": "Basel",
        "addr:housenumber": "35",
        "addr:postcode": "4052",
        "addr:street": "St. Alban-Tal",
        "amenity": "restaurant",
        "cuisine": "coffee_shop",
        "indoor_seating": "yes",
        "name": "Café Papiermühle",
        "opening_hours": "Tu-Sa 11:30-18:00; Su 10:00-18:00",
        "outdoor_seating": "yes",
        "website": "http://www.papiermuseum.ch"
      }
    },
    {
      "type": "node",
      "id": 529593919,
      "lat": 47.5676143,
      "lon": 7.6023449,
      "tags": {
        "amenity": "fast_food",
        "indoor_seating": "yes",
        "name": "Maulbeergrill",
        "note": "Döner Place",
        "outdoor_seating": "no",
        "smoking": "no"
      }
    },
    {
      "type": "node",
      "id": 567050951,
      "lat": 47.5510592,
      "lon": 7.5879883,
      "tags": {
        "addr:city": "Basel",
        "addr:country": "CH",
        "addr:housenumber": "45",
        "addr:postcode": "4051",
        "addr:street": "Steinentorstrasse",
        "amenity": "restaurant",
        "indoor_seating": "yes",
        "name": "Paddy Reilly's Irish Pub & Restaurant",
        "opening_hours": "Mo-Th 16:00-24:00, Fr 14:00-05:00, Sa 13:00-05:00, Su 14:00-23:00",
        "outdoor_seating": "yes",
        "smoking": "outside",
        "website": "http://www.irish-pub.ch/"
      }
    },
    {
      "type": "node",
      "id": 567050965,
      "lat": 47.5551319,
      "lon": 7.5886898,
      "tags": {
        "addr:city": "Basel",
        "addr:housenumber": "76",
        "addr:postcode": "4001",
        "addr:street": "Gerbergasse",
        "amenity": "restaurant",
        "diet:vegetarian": "yes",
        "indoor_seating": "yes",
        "name": "Mister Wong",
        "opening_hours": "Mo-Th 11:00-23:00; Fr, Sa 11:00-00:00; Su 11:30-23:00",
        "outdoor_seating": "yes",
        "smoking": "outside",
        "website": "https://www.misterwong.ch/filialen/basel-gerbergasse",
        "wheelchair": "limited"
      }
    },
    {
      "type": "node",
      "id": 567050966,
      "lat": 47.5534184,
      "lon": 7.5890581,
      "tags": {
        "addr:city": "Basel",
        "addr:postcode": "4051",
        "addr:street": "Theatergässlein",
        "amenity": "cafe",
        "brand": "Starbucks",
        "brand:wikidata": "Q37158",
        "brand:wikipedia": "en:Starbucks",
        "cuisine": "coffee_shop",
        "indoor_seating": "yes",
        "name": "Starbucks",
        "official_name": "Starbucks Coffee",
        "operator": "Starbucks",
        "outdoor_seating": "yes",
        "smoking": "outside",
        "takeaway": "yes"
      }
    },
    {
      "type": "node",
      "id": 569316788,
      "lat": 47.5482689,
      "lon": 7.5897171,
      "tags": {
        "addr:city": "Basel",
        "addr:housenumber": "10",
        "addr:postcode": "4051",
        "addr:street": "Centralbahnstrasse",
        "alt_name": "Burger King Centralbahnplatz",
        "amenity": "fast_food",
        "branch": "Basel Centralbahnplatz",
        "brand": "Burger King",
        "brand:wikidata": "Q177054",
        "brand:wikipedia": "de:Burger King",
        "cuisine": "burger",
        "indoor_seating": "yes",
        "name": "Burger King",
        "opening_hours": "Su-We 10:30-23:00; Th-Sa 10:30-24:00",
        "outdoor_seating": "yes",
        "smoking": "outside",
        "takeaway": "yes",
        "website": "https://de.burger-king.ch/kingfinder/15354?id=1510"
      }
    },
    {
      "type": "node",
      "id": 582950406,
      "lat": 47.5571682,
      "lon": 7.5891969,
      "tags": {
        "addr:city": "Basel",
        "addr:housenumber": "25",
        "addr:postcode": "4001",
        "addr:street": "Freie Strasse",
        "amenity": "restaurant",
        "indoor_seating": "yes",
        "name": "Restaurant Schlüsselzunft",
        "outdoor_seating": "yes",
        "phone": "+41 61 2612046",
        "smoking": "outside",
        "website": "http://www.schluesselzunft.ch",
        "wheelchair": "no"
      }
    },
    {
      "type": "node",
      "id": 583280000,
      "lat": 47.5567745,
      "lon": 7.5870231,
      "tags": {
        "addr:city": "Basel",
        "addr:housenumber": "19",
        "addr:postcode": "4001",
        "addr:street": "Rümelinsplatz",
        "amenity": "restaurant",
        "email": "contact@coccodrillo-ristorante.com",
        "indoor_seating": "yes",
        "name": "Ristorante Coccodrillo",
        "opening_hours": "Mo-Fr 10:30-14:30, 17:00-22:00; Sa 10:30-22:30; Su 11:00-21:00",
        "outdoor_seating": "yes",
        "phone": "+41 61 262 33 36",
        "smoking": "outside",
        "website": "https://www.coccodrillo-ristorante.com"
      }
    },
    {
      "type": "node",
      "id": 584725541,
      "lat": 47.5543447,
      "lon": 7.5887267,
      "tags": {
        "addr:city": "Basel",
        "addr:housenumber": "10",
        "addr:postcode": "4051",
        "addr:street": "Barfüsserplatz",
        "alt_name": "Brasserie Zum Braunen Mutz",
        "amenity": "restaurant",
        "diet:vegan": "no",
        "diet:vegetarian": "no",
        "indoor_seating": "yes",
        "name": "Zum Braunen Mutz",
        "operator": "Candrian Catering",
        "outdoor_seating": "yes",
        "smoking": "outside",
        "toilets:wheelchair": "yes",
        "website": "https://www.brauner-mutz-basel.ch/",
        "wheelchair": "yes"
      }
    },
    {
      "type": "node",
      "id": 584725542,
      "lat": 47.5542884,
      "lon": 7.58872,
      "tags": {
        "amenity": "fast_food",
        "brand": "McDonald's",
        "brand:wikidata": "Q38076",
        "brand:wikipedia": "en:McDonald's",
        "cuisine": "burger",
        "indoor_seating": "yes",
        "name": "McDonald's",
        "opening_hours": "Su-Th 08:00-01:00, Fr,Sa 08:00-05:00",
        "operator": "McDonald's",
        "outdoor_seating": "yes",
        "smoking": "no",
        "takeaway": "yes",
        "wheelchair": "no"
      }
    },
    {
      "type": "node",
      "id": 584725558,
      "lat": 47.554386,
      "lon": 7.589475,
      "tags": {
        "addr:city": "Basel",
        "addr:housenumber": "8",
        "addr:postcode": "4051",
        "addr:street": "Barfüsserplatz",
        "amenity": "restaurant",
        "check_date": "2024-08-28",
        "indoor_seating": "yes",
        "name": "Papa Joes Restaurant & Bar",
        "outdoor_seating": "yes",
        "payment:cash": "yes",
        "payment:credit_cards": "yes",
        "payment:debit_cards": "yes",
        "smoking": "outside",
        "wheelchair": "limited"
      }
    },
    {
      "type": "node",
      "id": 585046279,
      "lat": 47.5656436,
      "lon": 7.5934442,
      "tags": {
        "addr:city": "Basel",
        "addr:housenumber": "44",
        "addr:postcode": "4057",
        "addr:street": "Müllheimerstrasse",
        "amenity": "cafe",
        "name": "Didi Bar"
      }
    },
    {
      "type": "node",
      "id": 585047863,
      "lat": 47.5651584,
      "lon": 7.5940531,
      "tags": {
        "addr:city": "Basel",
        "addr:housenumber": "36",
        "addr:postcode": "4057",
        "addr:street": "Müllheimerstrasse",
        "amenity": "cafe",
        "name": "Saint Tropez"
      }
    },
    {
      "type": "node",
      "id": 585055185,
      "lat": 47.5644905,
      "lon": 7.592551,
      "tags": {
        "addr:city": "Basel",
        "addr:housenumber": "12",
        "addr:postcode": "4057",
        "addr:street": "Sperrstrasse",
        "amenity": "cafe",
        "name": "Clara",
        "opening_hours": "Tu-Fr 12:00-15:00,18:00-22:00, Sa 10:00-02:00, Su 10:00-22:00",
        "wheelchair": "no"
      }
    },
    {
      "type": "node",
      "id": 585056537,
      "lat": 47.5644661,
      "lon": 7.5916896,
      "tags": {
        "addr:city": "Basel",
        "addr:housenumber": "34",
        "addr:postcode": "4057",
        "addr:street": "Klybeckstrasse",
        "amenity": "restaurant",
        "cuisine": "regional",
        "indoor_seating": "yes",
        "name": "Klybeck Casino",
        "outdoor_seating": "yes",
        "smoking": "outside"
      }
    },
    {
      "type": "node",
      "id": 585133165,
      "lat": 47.5759055,
      "lon": 7.588516,
      "tags": {
        "addr:city": "Basel",
        "addr:housenumber": "241",
        "addr:postcode": "4057",
        "addr:street": "Klybeckstrasse",
        "amenity": "restaurant",
        "cuisine": "local",
        "diet:vegan": "yes",
        "diet:vegetarian": "only",
        "indoor_seating": "yes",
        "level": "0",
        "name": "Lauch",
        "opening_hours": "We-Fr 12:00-13:30; We-Su 18:00-24:00",
        "outdoor_seating": "yes",
        "phone": "+41 61 692 56 56",
        "website": "https://lauch-basel.ch/"
      }
    },
    {
      "type": "node",
      "id": 585184294,
      "lat": 47.5595586,
      "lon": 7.5882654,
      "tags": {
        "addr:city": "Basel",
        "addr:housenumber": "1",
        "addr:postcode": "4051",
        "addr:street": "Schifflände",
        "amenity": "restaurant",
        "check_date:opening_hours": "2024-06-02",
        "email": "info@alchemistbasel.ch",
        "indoor_seating": "yes",
        "name": "Alchemist",
        "opening_hours:signed": "no",
        "outdoor_seating": "yes",
        "phone": "+41 61 561 88 68",
        "smoking": "outside",
        "website": "https://www.alchemistbasel.ch/"
      }
    },
    {
      "type": "node",
      "id": 586277088,
      "lat": 47.5633753,
      "lon": 7.5962178,
      "tags": {
        "addr:city": "Basel",
        "addr:housenumber": "32",
        "addr:postcode": "4057",
        "addr:street": "Drahtzugstrasse",
        "amenity": "restaurant",
        "indoor_seating": "yes",
        "name": "Punta Cana",
        "opening_hours": "Tu-Su 11:30-22:30",
        "outdoor_seating": "yes",
        "phone": "+41 61 681 67 82",
        "smoking": "outside",
        "website": "https://www.punta-cana-restaurant.ch/"
      }
    },
    {
      "type": "node",
      "id": 586281979,
      "lat": 47.5627493,
      "lon": 7.5966598,
      "tags": {
        "addr:city": "Basel",
        "addr:housenumber": "27",
        "addr:postcode": "4058",
        "addr:street": "Clarastrasse",
        "amenity": "restaurant",
        "cuisine": "asian",
        "indoor_seating": "yes",
        "name": "Bali",
        "name:de": "Thai Square",
        "outdoor_seating": "yes",
        "smoking": "outside"
      }
    },
    {
      "type": "node",
      "id": 586283598,
      "lat": 47.562527,
      "lon": 7.5967588,
      "tags": {
        "addr:city": "Basel",
        "addr:housenumber": "61",
        "addr:postcode": "4058",
        "addr:street": "Hammerstrasse",
        "amenity": "restaurant",
        "cuisine": "local",
        "indoor_seating": "yes",
        "internet_access": "wlan",
        "name": "Rheinfelder Hof",
        "outdoor_seating": "yes",
        "phone": "+41 61 695 45 45",
        "smoking": "outside",
        "tourism": "hotel",
        "website": "https://rheinfelderhof.ch/",
        "wheelchair": "limited"
      }
    },
    {
      "type": "node",
      "id": 590051414,
      "lat": 47.5653158,
      "lon": 7.605048,
      "tags": {
        "addr:city": "Basel",
        "addr:housenumber": "40",
        "addr:postcode": "4058",
        "addr:street": "Rosentalstrasse",
        "amenity": "restaurant",
        "indoor_seating": "yes",
        "name": "Thai Family",
        "outdoor_seating": "yes",
        "smoking": "outside",
        "website": "http://www.malaithai-restaurant.ch/"
      }
    },
    {
      "type": "node",
      "id": 590084594,
      "lat": 47.5651063,
      "lon": 7.5981445,
      "tags": {
        "addr:city": "Basel",
        "addr:housenumber": "91",
        "addr:postcode": "4058",
        "addr:street": "Riehenring",
        "amenity": "restaurant",
        "indoor_seating": "yes",
        "name": "Hong Kong",
        "outdoor_seating": "no",
        "smoking": "no"
      }
    },
    {
      "type": "node",
      "id": 591435646,
      "lat": 47.5621229,
      "lon": 7.5947687,
      "tags": {
        "addr:city": "Basel",
        "addr:housenumber": "1",
        "addr:postcode": "4058",
        "addr:street": "Clarastrasse",
        "amenity": "restaurant",
        "indoor_seating": "yes",
        "name": "Holzschopf",
        "outdoor_seating": "yes",
        "smoking": "outside"
      }
    },
    {
      "type": "node",
      "id": 592182051,
      "lat": 47.5648516,
      "lon": 7.6033861,
      "tags": {
        "addr:city": "Basel",
        "addr:housenumber": "21",
        "addr:postcode": "4058",
        "addr:street": "Rosentalstrasse",
        "amenity": "cafe",
        "check_date": "2024-12-03",
        "check_date:opening_hours": "2022-03-19",
        "indoor_seating": "yes",
        "name": "Café Charlotte",
        "opening_hours": "Mo-Fr 07:30-14:00",
        "outdoor_seating": "yes",
        "phone": "+41 612222766",
        "smoking": "outside",
        "website": "https://www.cafecharlotte.ch/",
        "wheelchair": "no"
      }
    },
    {
      "type": "node",
      "id": 593079669,
      "lat": 47.5523472,
      "lon": 7.5873964,
      "tags": {
        "addr:city": "Basel",
        "addr:housenumber": "23",
        "addr:postcode": "4051",
        "addr:street": "Kohlenberggasse",
        "amenity": "restaurant",
        "indoor_seating": "yes",
        "name": "Balthazar",
        "outdoor_seating": "yes",
        "smoking": "outside"
      }
    },
    {
      "type": "node",
      "id": 593091353,
      "lat": 47.5521051,
      "lon": 7.5885541,
      "tags": {
        "amenity": "cafe",
        "indoor_seating": "yes",
        "internet_access": "yes",
        "name": "Internet Dome",
        "outdoor_seating": "no",
        "smoking": "no"
      }
    },
    {
      "type": "node",
      "id": 593094711,
      "lat": 47.5528226,
      "lon": 7.5884257,
      "tags": {
        "addr:city": "Basel",
        "addr:housenumber": "32",
        "addr:postcode": "4051",
        "addr:street": "Steinenvorstadt",
        "amenity": "restaurant",
        "indoor_seating": "yes",
        "name": "VIP",
        "opening_hours": "Mo 10:00-24:00; Tu-Fr 00:00-01:00,10:00-24:00; Sa 00:00-03:00,10:00-24:00; Su 00:00-03:00,12:00-24:00",
        "outdoor_seating": "yes",
        "smoking": "outside",
        "website": "http://www.viprestaurantbar.ch/"
      }
    },
    {
      "type": "node",
      "id": 593094712,
      "lat": 47.5526293,
      "lon": 7.5889925,
      "tags": {
        "addr:city": "Basel",
        "addr:housenumber": "4",
        "addr:postcode": "4051",
        "addr:street": "Stänzlergasse",
        "alt_name": "Tibits Steinen",
        "amenity": "restaurant",
        "branch": "Basel Steinen",
        "brand": "tibits",
        "check_date": "2023-09-26",
        "diet:vegan": "yes",
        "diet:vegetarian": "only",
        "indoor_seating": "yes",
        "name": "Tibits",
        "opening_hours": "Mo-Th 07:00-23:00; Fr 07:00-24:00; Sa 08:00-24:00; 09:00-23:00",
        "operator": "Tibits",
        "outdoor_seating": "yes",
        "smoking": "outside",
        "toilets:wheelchair": "yes",
        "website": "https://www.tibits.ch/de/restaurants#tibits-basel",
        "wheelchair": "limited",
        "wheelchair:description": "Rollstuhlgerechtes WC nur mit Lift (begleitet) erreichbar"
      }
    },
    {
      "type": "node",
      "id": 593639027,
      "lat": 47.5527239,
      "lon": 7.5893759,
      "tags": {
        "addr:city": "Basel",
        "addr:housenumber": "7",
        "addr:postcode": "4051",
        "addr:street": "Stänzlergasse",
        "amenity": "restaurant",
        "branch": "Basel Steinen",
        "capacity": "45",
        "cuisine": "sushi",
        "delivery": "yes",
        "diet:vegan": "yes",
        "diet:vegetarian": "has options",
        "indoor_seating": "yes",
        "internet_access": "no",
        "name": "Negishi Sushi Bar",
        "opening_hours": "11:00-23:00",
        "operator": "Fredy Wiesner Gastronomie",
        "outdoor_seating": "yes",
        "phone": "+41 61 271 64 46",
        "smoking": "outside",
        "takeaway": "yes",
        "website": "https://www.negishi.ch/basel-steinen",
        "wheelchair": "yes"
      }
    },
    {
      "type": "node",
      "id": 593639067,
      "lat": 47.5539866,
      "lon": 7.5892461,
      "tags": {
        "amenity": "cafe",
        "indoor_seating": "yes",
        "name": "Museumscafe",
        "outdoor_seating": "no",
        "smoking": "no"
      }
    },
    {
      "type": "node",
      "id": 697447484,
      "lat": 47.564525,
      "lon": 7.5690083,
      "tags": {
        "amenity": "cafe",
        "indoor_seating": "yes",
        "name": "Kiosk Caffee Park",
        "outdoor_seating": "yes",
        "smoking": "outside"
      }
    },
    {
      "type": "node",
      "id": 697447492,
      "lat": 47.5616632,
      "lon": 7.5687611,
      "tags": {
        "amenity": "restaurant",
        "check_date": "2024-08-28",
        "indoor_seating": "yes",
        "name": "Strassburgerhof",
        "opening_hours": "Mo-Sa 08:00-24:00; Su 09:00-24:00",
        "outdoor_seating": "yes",
        "payment:cash": "yes",
        "payment:credit_cards": "yes",
        "payment:debit_cards": "yes",
        "smoking": "outside",
        "wheelchair": "limited"
      }
    },
    {
      "type": "node",
      "id": 698552423,
      "lat": 47.557879,
      "lon": 7.581831,
      "tags": {
        "amenity": "restaurant",
        "check_date": "2024-08-28",
        "indoor_seating": "yes",
        "level": "0",
        "name": "Zum Tell",
        "opening_hours": "Mo-Fr 11:00-14:30,18:00-24:00; Sa 18:00-24:00; PH closed",
        "outdoor_seating": "yes",
        "payment:cash": "yes",
        "payment:credit_cards": "yes",
        "payment:debit_cards": "yes",
        "smoking": "outside",
        "website": "https://www.zumtellbasel.ch/",
        "wheelchair": "no"
      }
    },
    {
      "type": "node",
      "id": 698555438,
      "lat": 47.5600294,
      "lon": 7.5858415,
      "tags": {
        "addr:city": "Basel",
        "addr:housenumber": "1",
        "addr:postcode": "4051",
        "addr:street": "Herbergsgasse",
        "air_conditioning": "no",
        "amenity": "restaurant",
        "cuisine": "turkish",
        "indoor_seating": "yes",
        "name": "Pinar",
        "opening_hours": "Tu-Sa 09:00-14:30,17:00-22:00",
        "outdoor_seating": "yes",
        "phone": "+41 61 261 02 39",
        "smoking": "outside",
        "wheelchair": "limited"
      }
    },
    {
      "type": "node",
      "id": 698557147,
      "lat": 47.5623768,
      "lon": 7.5735269,
      "tags": {
        "amenity": "restaurant",
        "indoor_seating": "yes",
        "name": "Al Giardino",
        "outdoor_seating": "yes",
        "smoking": "outside"
      }
    },
    {
      "type": "node",
      "id": 702204838,
      "lat": 47.5442953,
      "lon": 7.5903595,
      "tags": {
        "addr:city": "Basel",
        "addr:housenumber": "158",
        "addr:postcode": "4053",
        "addr:street": "Güterstrasse",
        "amenity": "cafe",
        "indoor_seating": "yes",
        "name": "Café del Mundo",
        "opening_hours": "Tu-Fr 07:30-18:00; Sa 08:00-17:00",
        "outdoor_seating": "yes",
        "phone": "+41 61 361 16 91",
        "website": "http://delmundo.ch/",
        "wheelchair": "limited"
      }
    },
    {
      "type": "node",
      "id": 702231310,
      "lat": 47.5425899,
      "lon": 7.5917023,
      "tags": {
        "addr:city": "Basel",
        "addr:housenumber": "151",
        "addr:postcode": "4053",
        "addr:street": "Dornacherstrasse",
        "amenity": "restaurant",
        "cuisine": "barbecue;regional;steak_house",
        "email": "info@wanderruh.ch",
        "indoor_seating": "yes",
        "name": "Restaurant zur Wanderruh",
        "name:de": "Wanderruh",
        "opening_hours": "Mo-Fr 11:30-14:00,18:00+",
        "outdoor_seating": "yes",
        "phone": "+41613610888",
        "smoking": "outside",
        "website": "https://www.wanderruh.ch/"
      }
    },
    {
      "type": "node",
      "id": 702236061,
      "lat": 47.5418217,
      "lon": 7.5975665,
      "tags": {
        "addr:city": "Basel",
        "addr:housenumber": "250",
        "addr:postcode": "4053",
        "addr:street": "Güterstrasse",
        "alt_name": "Sutter Begg Güter",
        "amenity": "cafe",
        "branch": "Basel Gundeldingen",
        "indoor_seating": "yes",
        "name": "Sutter Begg",
        "opening_hours": "Mo-Fr 06:30-18:30, Sa 07:00-17:00, Su 07:30-17:00",
        "operator": "Sutter",
        "outdoor_seating": "yes",
        "shop": "bakery",
        "smoking": "outside",
        "website": "https://www.sutterbegg.ch/filialen/sutter-begg-gueter",
        "wheelchair": "limited"
      }
    },
    {
      "type": "node",
      "id": 731419122,
      "lat": 47.5421477,
      "lon": 7.5921326,
      "tags": {
        "addr:city": "Basel",
        "addr:housenumber": "154",
        "addr:postcode": "4053",
        "addr:street": "Dornacherstrasse",
        "amenity": "restaurant",
        "cuisine": "pizza",
        "delivery": "yes",
        "indoor_seating": "yes",
        "name": "Pizza Time",
        "outdoor_seating": "yes",
        "phone": "+41 84 814 81 48",
        "smoking": "outside",
        "takeaway": "yes",
        "wheelchair": "yes"
      }
    },
    {
      "type": "node",
      "id": 774446310,
      "lat": 47.5451857,
      "lon": 7.5876559,
      "tags": {
        "amenity": "restaurant",
        "brewery": "bfm",
        "check_date:opening_hours": "2023-07-18",
        "cuisine": "regional",
        "name": "Cafe Haltestelle",
        "opening_hours": "Mo-Fr 10:00-21:00",
        "wheelchair": "no"
      }
    },
    {
      "type": "node",
      "id": 796765566,
      "lat": 47.5671452,
      "lon": 7.5952952,
      "tags": {
        "amenity": "fast_food",
        "cuisine": "kebab;pizza",
        "description": "Kebab, pizza",
        "indoor_seating": "yes",
        "name": "Isbilir",
        "opening_hours": "Mo-Th 09:00-24:00, Fr,Sa 09:00-02:00, Su 09:00-24:00",
        "outdoor_seating": "yes",
        "smoking": "outside",
        "wheelchair": "no"
      }
    },
    {
      "type": "node",
      "id": 822473463,
      "lat": 47.5423773,
      "lon": 7.5915717,
      "tags": {
        "addr:city": "Basel",
        "addr:housenumber": "152",
        "addr:postcode": "4053",
        "addr:street": "Dornacherstrasse",
        "amenity": "restaurant",
        "cuisine": "pizza",
        "indoor_seating": "yes",
        "name": "Pizzeria Da Chiara",
        "outdoor_seating": "yes",
        "phone": "061 220 03 00",
        "smoking": "outside"
      }
    },
    {
      "type": "node",
      "id": 985234865,
      "lat": 47.5563001,
      "lon": 7.6107483,
      "tags": {
        "addr:city": "Basel",
        "addr:housenumber": "195",
        "addr:postcode": "4052",
        "addr:street": "St. Alban-Rheinweg",
        "amenity": "restaurant",
        "email": "info@lerhinbleu.ch",
        "name": "Le Rhin Bleu",
        "old_name": "Restaurant Veronica",
        "outdoor_seating": "yes",
        "phone": "+41 61 311 53 53",
        "website": "https://www.lerhinbleu.ch/",
        "wheelchair": "yes"
      }
    },
    {
      "type": "node",
      "id": 1028007577,
      "lat": 47.5690588,
      "lon": 7.5902334,
      "tags": {
        "amenity": "cafe",
        "indoor_seating": "yes",
        "name": "Antik Café Bar",
        "outdoor_seating": "no",
        "smoking": "no"
      }
    },
    {
      "type": "node",
      "id": 1170699744,
      "lat": 47.5458033,
      "lon": 7.557097,
      "tags": {
        "amenity": "restaurant",
        "indoor_seating": "yes",
        "name": "Weiherhof",
        "outdoor_seating": "yes",
        "smoking": "outside"
      }
    },
    {
      "type": "node",
      "id": 1170699746,
      "lat": 47.5467954,
      "lon": 7.565239,
      "tags": {
        "addr:city": "Basel",
        "addr:housenumber": "160",
        "addr:postcode": "4054",
        "addr:street": "Holeestrasse",
        "amenity": "cafe",
        "check_date": "2025-02-26",
        "check_date:smoking": "2025-02-26",
        "indoor_seating": "yes",
        "name": "Café Bar Mélange",
        "opening_hours": "Mo-Fr 07:00-19:00; Sa 08:00-18:00",
        "operator": "Inci Coban",
        "outdoor_seating": "yes",
        "payment:cash": "yes",
        "payment:credit_cards": "yes",
        "payment:mastercard": "yes",
        "payment:visa": "yes",
        "smoking": "outside"
      }
    },
    {
      "type": "node",
      "id": 1170699794,
      "lat": 47.547317,
      "lon": 7.56516,
      "tags": {
        "addr:city": "Basel",
        "addr:housenumber": "53",
        "addr:postcode": "4054",
        "addr:street": "Reiterstrasse",
        "alt_name": "Sutter Begg Neuweilerplatz",
        "amenity": "cafe",
        "branch": "Basel Neuweilerplatz",
        "drive_through": "no",
        "indoor_seating": "yes",
        "internet_access": "no",
        "name": "Sutter Begg",
        "opening_hours": "Mo-Fr 06:00-18:30; Sa 07:00-17:00; Su 07:30-16:00",
        "operator": "Sutter",
        "outdoor_seating": "yes",
        "shop": "bakery",
        "takeaway": "yes",
        "website": "https://www.sutterbegg.ch/filialen/sutter-begg-neuweilerplatz"
      }
    },
    {
      "type": "node",
      "id": 1170699798,
      "lat": 47.5460894,
      "lon": 7.5574644,
      "tags": {
        "addr:city": "Basel",
        "addr:housenumber": "102",
        "addr:postcode": "4054",
        "addr:street": "Neuweilerstrasse",
        "amenity": "cafe",
        "cuisine": "breakfast;cake;coffee_shop",
        "email": "info@beesandbirdscafe.ch",
        "indoor_seating": "yes",
        "name": "Bees and Birds Café",
        "opening_hours": "Su, We-Fr 09:00-17:00; Sa 09:00-15:00",
        "outdoor_seating": "yes",
        "smoking": "outside",
        "website": "https://www.beesandbirdscafe.ch/"
      }
    },
    {
      "type": "node",
      "id": 1197413423,
      "lat": 47.5481764,
      "lon": 7.5895002,
      "tags": {
        "addr:city": "Basel",
        "addr:housenumber": "8",
        "addr:postcode": "4051",
        "addr:street": "Centralbahnplatz",
        "alt_name": "dean & david Centralbahnplatz",
        "amenity": "cafe",
        "branch": "Basel Centralbahnplatz",
        "description": "Fresh healthy food bar",
        "indoor_seating": "yes",
        "name": "dean & david",
        "operator": "dean & david Schweiz",
        "outdoor_seating": "no",
        "smoking": "no",
        "website": "https://deananddavid.ch/standorte/basel-centralbahnplatz/"
      }
    },
    {
      "type": "node",
      "id": 1197413430,
      "lat": 47.5455491,
      "lon": 7.5872004,
      "tags": {
        "addr:city": "Basel",
        "addr:housenumber": "112",
        "addr:postcode": "4053",
        "addr:street": "Güterstrasse",
        "amenity": "cafe",
        "email": "admin@lacolumbiana.ch",
        "indoor_seating": "yes",
        "name": "Kaffeerösterei La Columbiana",
        "name:de": "Kaffeerösterei La Columbiana",
        "opening_hours": "Tu-Fr 08:00-12:00, 14:00-18:00; Sa 10:00-12:00",
        "outdoor_seating": "no",
        "phone": "+4161361 02 12",
        "website": "https://www.lacolumbiana.ch/"
      }
    },
    {
      "type": "node",
      "id": 1255857521,
      "lat": 47.5447379,
      "lon": 7.5892479,
      "tags": {
        "addr:city": "Basel",
        "addr:housenumber": "138",
        "addr:postcode": "4053",
        "addr:street": "Güterstrasse",
        "amenity": "restaurant",
        "brand": "Wasabi",
        "brand:wikidata": "Q23891278",
        "brand:wikipedia": "en:Wasabi (restaurant)",
        "check_date": "2023-02-04",
        "check_date:opening_hours": "2022-11-25",
        "cuisine": "japanese",
        "name": "Wasabi",
        "opening_hours": "Mo-Fr 11:30-14:00,16:30-20:00",
        "phone": "+41 61 363 00 00",
        "website": "https://wasabi2go.ch/"
      }
    },
    {
      "type": "node",
      "id": 1265552218,
      "lat": 47.5475158,
      "lon": 7.590855,
      "tags": {
        "amenity": "fast_food",
        "brand": "Popeyes",
        "cuisine": "chicken",
        "indoor_seating": "yes",
        "name": "Popeyes",
        "official_name": "Popeyes Louisiana Kitchen",
        "opening_hours": "PH,Mo-Su 10:30-23:00",
        "outdoor_seating": "yes",
        "smoking": "outside",
        "takeaway": "yes"
      }
    },
    {
      "type": "node",
      "id": 1315133421,
      "lat": 47.5600912,
      "lon": 7.5678475,
      "tags": {
        "amenity": "cafe",
        "check_date:opening_hours": "2024-05-28",
        "cuisine": "coffee_shop",
        "indoor_seating": "yes",
        "name": "Cafe Helvetia",
        "opening_hours:signed": "no",
        "outdoor_seating": "yes",
        "smoking": "outside"
      }
    },
    {
      "type": "node",
      "id": 1365193584,
      "lat": 47.5842875,
      "lon": 7.6497569,
      "tags": {
        "addr:city": "Riehen",
        "addr:country": "CH",
        "addr:housenumber": "38",
        "addr:postcode": "4125",
        "addr:street": "Baselstrasse",
        "amenity": "restaurant",
        "indoor_seating": "yes",
        "name": "Landgasthof",
        "outdoor_seating": "yes",
        "phone": "+41 61 6455070",
        "website": "https://www.landgasthof-riehen.ch/",
        "wheelchair": "yes",
        "wheelchair:description": "WC Rollstuhlgängig, Eurokey"
      }
    },
    {
      "type": "node",
      "id": 1422964359,
      "lat": 47.5409522,
      "lon": 7.6195941,
      "tags": {
        "amenity": "restaurant",
        "cuisine": "italian",
        "name": "Ritazza"
      }
    },
    {
      "type": "node",
      "id": 1430898779,
      "lat": 47.566215,
      "lon": 7.5913795,
      "tags": {
        "addr:city": "Basel",
        "addr:housenumber": "56",
        "addr:postcode": "4057",
        "addr:street": "Feldbergstrasse",
        "amenity": "restaurant",
        "indoor_seating": "yes",
        "name": "Bon Gout",
        "outdoor_seating": "no",
        "smoking": "no"
      }
    },
    {
      "type": "node",
      "id": 1430901108,
      "lat": 47.5660236,
      "lon": 7.5909437,
      "tags": {
        "amenity": "restaurant",
        "indoor_seating": "yes",
        "name": "Taste of Mykonos",
        "outdoor_seating": "yes",
        "smoking": "outside"
      }
    },
    {
      "type": "node",
      "id": 1529984092,
      "lat": 47.5705632,
      "lon": 7.5868666,
      "tags": {
        "amenity": "restaurant",
        "name": "RiiBistro",
        "opening_hours": "Mo-Th 12:00-14:00",
        "wheelchair": "yes"
      }
    },
    {
      "type": "node",
      "id": 1581301035,
      "lat": 47.5531283,
      "lon": 7.5892885,
      "tags": {
        "addr:city": "Basel",
        "addr:housenumber": "20",
        "addr:postcode": "4051",
        "addr:street": "Birsig-Parkplatz",
        "amenity": "restaurant",
        "indoor_seating": "yes",
        "name": "Hostaria",
        "outdoor_seating": "yes",
        "smoking": "outside",
        "website": "https://www.hostaria-schweiz.ch/",
        "wheelchair": "no"
      }
    },
    {
      "type": "node",
      "id": 1592876743,
      "lat": 47.5645204,
      "lon": 7.5840604,
      "tags": {
        "addr:city": "Basel",
        "addr:housenumber": "58",
        "addr:postcode": "4056",
        "addr:street": "St. Johanns-Vorstadt",
        "amenity": "restaurant",
        "cuisine": "tapas;spanish",
        "indoor_seating": "yes",
        "name": "Don Pincho",
        "opening_hours": "Tu-Th 16:00-00:00; Fr 17:00-00:00; Mo,Sa 18:00-00:00; PH off",
        "outdoor_seating": "yes",
        "smoking": "outside",
        "website": "https://donpincho.com/"
      }
    },
    {
      "type": "node",
      "id": 1598843925,
      "lat": 47.551765,
      "lon": 7.5926085,
      "tags": {
        "addr:city": "Basel",
        "addr:housenumber": "18",
        "addr:postcode": "4051",
        "addr:street": "Sternengasse",
        "amenity": "restaurant",
        "indoor_seating": "yes",
        "name": "PANE-CON-CARNE",
        "outdoor_seating": "no",
        "phone": "+41 61 281 50 11",
        "smoking": "no"
      }
    },
    {
      "type": "node",
      "id": 1598855455,
      "lat": 47.551441,
      "lon": 7.5932662,
      "tags": {
        "addr:city": "Basel",
        "addr:housenumber": "24",
        "addr:postcode": "4051",
        "addr:street": "Henric Petri-Strasse",
        "amenity": "restaurant",
        "cuisine": "mexican",
        "indoor_seating": "yes",
        "name": "Cartell",
        "outdoor_seating": "yes",
        "phone": "+41 61 283 80 00",
        "smoking": "outside",
        "takeaway": "yes",
        "url": "https://www.cartell.ch/locations"
      }
    },
    {
      "type": "node",
      "id": 1598863595,
      "lat": 47.5519778,
      "lon": 7.5928207,
      "tags": {
        "amenity": "restaurant",
        "cuisine": "ramen",
        "indoor_seating": "yes",
        "name": "Mirai",
        "opening_hours": "Tu-Fr 11:30-14:00,18:00-22:00; Sa 12:00-14:30,18:00-22:00",
        "outdoor_seating": "yes",
        "smoking": "outside"
      }
    },
    {
      "type": "node",
      "id": 1599798166,
      "lat": 47.5498846,
      "lon": 7.5834578,
      "tags": {
        "amenity": "restaurant",
        "indoor_seating": "yes",
        "name": "Rialto",
        "outdoor_seating": "yes",
        "smoking": "outside"
      }
    },
    {
      "type": "node",
      "id": 1611634279,
      "lat": 47.5564247,
      "lon": 7.5832142,
      "tags": {
        "addr:city": "Basel",
        "addr:housenumber": "10",
        "addr:postcode": "4051",
        "addr:street": "Kornhausgasse",
        "amenity": "restaurant",
        "cuisine": "thai",
        "email": "info@kitchen41.ch",
        "indoor_seating": "yes",
        "name": "Thai Food Kitchen 41",
        "opening_hours": "Mo-Fr 11:00-14:00,18:00-23:00;Sa 18:00-23:00",
        "outdoor_seating": "yes",
        "phone": "+41 61 506 12 70",
        "smoking": "outside",
        "takeaway": "yes",
        "website": "https://www.kitchen41.ch/",
        "wheelchair": "limited"
      }
    },
    {
      "type": "node",
      "id": 1618094480,
      "lat": 47.5416641,
      "lon": 7.617831,
      "tags": {
        "amenity": "restaurant",
        "name": "Wirtshaus St. Jakob"
      }
    },
    {
      "type": "node",
      "id": 1633856331,
      "lat": 47.5599753,
      "lon": 7.5819948,
      "tags": {
        "amenity": "restaurant",
        "indoor_seating": "yes",
        "name": "Mensa Universität Basel",
        "opening_hours:url": "https://universitaet-basel.sv-restaurant.ch/de/oeffnungszeiten-gastronomie-uni-basel/",
        "outdoor_seating": "yes",
        "smoking": "outside"
      }
    },
    {
      "type": "node",
      "id": 1639974798,
      "lat": 47.5612568,
      "lon": 7.5645838,
      "tags": {
        "amenity": "cafe",
        "indoor_seating": "yes",
        "name": "Café Cappuccino",
        "outdoor_seating": "yes",
        "smoking": "outside"
      }
    },
    {
      "type": "node",
      "id": 1653595985,
      "lat": 47.5513041,
      "lon": 7.5886568,
      "tags": {
        "addr:city": "Basel",
        "addr:country": "CH",
        "addr:housenumber": "25",
        "addr:postcode": "4051",
        "addr:street": "Steinentorstrasse",
        "amenity": "restaurant",
        "email": "filini.basel@radissonblu.com",
        "indoor_seating": "yes",
        "name": "Rein",
        "opening_hours": "11:30-23:30",
        "outdoor_seating": "yes",
        "phone": "+41 61 227 29 50",
        "smoking": "outside",
        "website": "http://www.filinirestaurant.com/restaurant-basel",
        "wheelchair": "yes",
        "wheelchair:description": "Rollstuhltoilette vorhanden"
      }
    },
    {
      "type": "node",
      "id": 1668864827,
      "lat": 47.5690053,
      "lon": 7.5965148,
      "tags": {
        "addr:housenumber": "30",
        "addr:street": "Efringerstrasse",
        "amenity": "cafe",
        "check_date": "2025-02-09",
        "check_date:opening_hours": "2024-05-26",
        "name": "Café Siesta",
        "opening_hours": "Mo-Fr 07:00-22:00; Sa 07:00-22:00",
        "phone": "+41 61 683 11 55",
        "wheelchair": "yes"
      }
    },
    {
      "type": "node",
      "id": 1769276555,
      "lat": 47.5668682,
      "lon": 7.5953324,
      "tags": {
        "amenity": "fast_food",
        "cuisine": "turkish",
        "name": "Royal Grill"
      }
    },
    {
      "type": "node",
      "id": 1794707585,
      "lat": 47.5322024,
      "lon": 7.5932176,
      "tags": {
        "amenity": "cafe",
        "cuisine": "coffee_shop",
        "name": "Cafe Streuli",
        "post_office": "post_partner",
        "post_office:brand": "Die Post AG",
        "toilets:wheelchair": "no",
        "wheelchair": "limited"
      }
    },
    {
      "type": "node",
      "id": 1794707598,
      "lat": 47.5336415,
      "lon": 7.5869823,
      "tags": {
        "amenity": "restaurant",
        "name": "Stucki",
        "wheelchair": "limited"
      }
    },
    {
      "type": "node",
      "id": 1796023933,
      "lat": 47.5499012,
      "lon": 7.5901434,
      "tags": {
        "addr:city": "Basel",
        "addr:housename": "Zum Kuss",
        "addr:housenumber": "59",
        "addr:postcode": "4051",
        "addr:street": "Elisabethenstrasse",
        "amenity": "restaurant",
        "cuisine": "regional",
        "indoor_seating": "yes",
        "name": "Zum Kuss",
        "opening_hours": "Mo-Sa 10:00-22:00, Sa 10:00-18:00",
        "outdoor_seating": "yes",
        "smoking": "outside",
        "website": "https://www.zumkuss.ch/",
        "wheelchair": "limited"
      }
    },
    {
      "type": "node",
      "id": 1810731427,
      "lat": 47.5573507,
      "lon": 7.5826147,
      "tags": {
        "addr:city": "Basel",
        "addr:housenumber": "2",
        "addr:postcode": "4051",
        "addr:street": "Schützenmattstrasse",
        "amenity": "restaurant",
        "check_date:opening_hours": "2023-03-03",
        "cuisine": "indian",
        "indoor_seating": "yes",
        "name": "Mandir",
        "opening_hours": "Mo-Fr 11:30-14:00,18:00-23:00; Sa,Su 17:00-23:00",
        "outdoor_seating": "no",
        "smoking": "no",
        "website": "https://www.hotel-spalenbrunnen.ch/Restaurant-mandir_5_de.html",
        "wheelchair": "no"
      }
    },
    {
      "type": "node",
      "id": 1855733118,
      "lat": 47.5448366,
      "lon": 7.5716504,
      "tags": {
        "addr:city": "Basel",
        "addr:housenumber": "61",
        "addr:postcode": "4054",
        "addr:street": "Holeestrasse",
        "amenity": "restaurant",
        "cuisine": "pizza",
        "delivery": "yes",
        "indoor_seating": "yes",
        "name": "Restaurant Pizzeria Dorenbach",
        "opening_hours": "Mo-Fr 10:00-14:00,17:00-23:00; Sa 17:00-23:00",
        "outdoor_seating": "yes",
        "phone": "+41 61 301 2631",
        "smoking": "outside",
        "website": "http://www.restaurant-dorenbach.com/"
      }
    },
    {
      "type": "node",
      "id": 1936094990,
      "lat": 47.5593624,
      "lon": 7.5931568,
      "tags": {
        "addr:city": "Basel",
        "addr:housenumber": "45",
        "addr:postcode": "4058",
        "addr:street": "Rheingasse",
        "amenity": "restaurant",
        "check_date": "2024-08-28",
        "name": "Restaurant zur Linde",
        "payment:cash": "yes",
        "payment:credit_cards": "yes",
        "payment:debit_cards": "yes",
        "website": "http://www.linde-basel.ch/"
      }
    },
    {
      "type": "node",
      "id": 1936100732,
      "lat": 47.5587383,
      "lon": 7.6011992,
      "tags": {
        "addr:city": "Basel",
        "addr:housenumber": "90",
        "addr:postcode": "4058",
        "addr:street": "Grenzacherstrasse",
        "amenity": "restaurant",
        "name": "Brauerei",
        "opening_hours": "Mo-Fr 11:30-14:00,18:00-22:00; Sa 18:00-22:00",
        "phone": "+41 61 6924936",
        "website": "https://www.brauerei-basel.ch/",
        "wheelchair": "limited"
      }
    },
    {
      "type": "node",
      "id": 1996943703,
      "lat": 47.5667371,
      "lon": 7.5649993,
      "tags": {
        "amenity": "restaurant",
        "indoor_seating": "yes",
        "name": "Matisse",
        "opening_hours": "Su-Fr 9:30-17:00",
        "outdoor_seating": "yes",
        "restaurant": "restaurant",
        "smoking": "outside"
      }
    },
    {
      "type": "node",
      "id": 2001289817,
      "lat": 47.5541247,
      "lon": 7.576166,
      "tags": {
        "addr:city": "Basel",
        "addr:housenumber": "160",
        "addr:postcode": "4055",
        "addr:street": "Spalenring",
        "amenity": "restaurant",
        "contact:phone": "+41 61 301 42 11",
        "contact:website": "https://www.royal-palace.ch",
        "cuisine": "indian",
        "indoor_seating": "yes",
        "name": "Royal Palace",
        "opening_hours": "Mo-Sa 10:45-14:00,17:15-23:30; Su 17:15-23:30",
        "outdoor_seating": "yes",
        "smoking": "outside"
      }
    },
    {
      "type": "node",
      "id": 2074770461,
      "lat": 47.5580102,
      "lon": 7.5870333,
      "tags": {
        "amenity": "restaurant",
        "indoor_seating": "yes",
        "name": "Beschle",
        "opening_hours": "Mo-Fr 07:00-18:00; Sa 08:00-17:30; Su 08:00-16:00",
        "outdoor_seating": "yes",
        "smoking": "outside"
      }
    },
    {
      "type": "node",
      "id": 2074770464,
      "lat": 47.5580889,
      "lon": 7.5866867,
      "tags": {
        "amenity": "restaurant",
        "diet:vegan": "no",
        "diet:vegetarian": "yes",
        "indoor_seating": "yes",
        "name": "Hasenburg",
        "opening_hours": "Tu-Sa 11:00-18:00+",
        "outdoor_seating": "yes",
        "payment:credit_cards": "yes",
        "payment:debit_cards": "yes",
        "smoking": "outside",
        "website": "https://hasenburg.swiss/"
      }
    },
    {
      "type": "node",
      "id": 2074770471,
      "lat": 47.5583481,
      "lon": 7.5872117,
      "tags": {
        "addr:city": "Basel",
        "addr:housenumber": "30",
        "addr:postcode": "4051",
        "addr:street": "Marktplatz",
        "alt_name": "Mövenpick Brasserie Baselstab",
        "amenity": "restaurant",
        "indoor_seating": "yes",
        "name": "Brasserie Baselstab",
        "operator": "Marché International",
        "outdoor_seating": "yes",
        "smoking": "outside",
        "website": "https://www.moevenpick-restaurants.com/brasserie-baselstab"
      }
    },
    {
      "type": "node",
      "id": 2074770476,
      "lat": 47.5547081,
      "lon": 7.5887536,
      "tags": {
        "amenity": "restaurant",
        "diet:vegan": "no",
        "diet:vegetarian": "no",
        "indoor_seating": "yes",
        "name": "Bodega Zum Strauss",
        "outdoor_seating": "yes",
        "smoking": "outside",
        "toilets": "yes",
        "toilets:wheelchair": "no",
        "wheelchair": "limited"
      }
    },
    {
      "type": "node",
      "id": 2146318935,
      "lat": 47.5525523,
      "lon": 7.5827294,
      "tags": {
        "amenity": "restaurant",
        "indoor_seating": "yes",
        "name": "Borromäum (Kulturzentrum, Restaurant)",
        "opening_hours": "Mo-Fr 11:30-14:00",
        "outdoor_seating": "yes",
        "smoking": "outside"
      }
    },
    {
      "type": "node",
      "id": 2215970143,
      "lat": 47.5536712,
      "lon": 7.5909948,
      "tags": {
        "addr:city": "Basel",
        "addr:housenumber": "7",
        "addr:postcode": "4001",
        "addr:street": "Steinenberg",
        "alt_name": "GARTEN RESTAURANT KUNSTHALLE",
        "amenity": "restaurant",
        "contact:phone": "+41 61 2724233",
        "indoor_seating": "yes",
        "name": "Kunsthalle",
        "opening_hours": "Mo-Sa 11:30-23:00",
        "operator": "Candrian Catering",
        "outdoor_seating": "yes",
        "smoking": "outside",
        "website": "https://www.restaurant-kunsthalle.ch/",
        "wheelchair": "yes"
      }
    },
    {
      "type": "node",
      "id": 2343796329,
      "lat": 47.5589346,
      "lon": 7.5990762,
      "tags": {
        "addr:city": "Basel",
        "addr:housenumber": "42",
        "addr:postcode": "4058",
        "addr:street": "Theodorsgraben",
        "amenity": "restaurant",
        "contact:phone": "+41 61 6916641",
        "contact:website": "http://www.resslirytti.ch/",
        "cuisine": "italian",
        "indoor_seating": "yes",
        "name": "Resslirytti",
        "outdoor_seating": "no",
        "smoking": "no",
        "wheelchair": "limited"
      }
    },
    {
      "type": "node",
      "id": 2368364435,
      "lat": 47.5277578,
      "lon": 7.5929996,
      "tags": {
        "addr:city": "Basel",
        "addr:housenumber": "201",
        "addr:street": "Reservoirstrasse",
        "amenity": "restaurant",
        "cuisine": "regional",
        "drive_in": "no",
        "internet_access:fee": "no",
        "microbrewery": "no",
        "name": "Restaurant Wasserturm",
        "outdoor_seating": "yes",
        "smoking": "no",
        "takeaway": "no",
        "wheelchair": "no"
      }
    },
    {
      "type": "node",
      "id": 2369538706,
      "lat": 47.5406293,
      "lon": 7.597733,
      "tags": {
        "addr:city": "Basel",
        "addr:country": "CH",
        "addr:housenumber": "255",
        "addr:postcode": "4053",
        "addr:street": "Dornacherstrasse",
        "amenity": "cafe",
        "cuisine": "italian;mediterranean",
        "internet_access": "wlan",
        "internet_access:fee": "no",
        "name": "Bohemia",
        "outdoor_seating": "yes",
        "phone": "+41 61 3338000",
        "smoking": "outside",
        "takeaway": "yes",
        "website": "https://www.thaisquare.ch",
        "website:menu": "https://www.thaisquare.ch/menus-1",
        "wheelchair": "no"
      }
    },
    {
      "type": "node",
      "id": 2376800603,
      "lat": 47.5370825,
      "lon": 7.6039023,
      "tags": {
        "addr:city": "Basel",
        "addr:housenumber": "505",
        "addr:postcode": "4059",
        "addr:street": "Gundeldingerstrasse",
        "amenity": "restaurant",
        "cuisine": "regional",
        "name": "Viertel-Kreis",
        "website": "https://www.viertel-kreis.ch/",
        "wheelchair": "limited"
      }
    },
    {
      "type": "node",
      "id": 2381403155,
      "lat": 47.5565748,
      "lon": 7.5883607,
      "tags": {
        "addr:city": "Basel",
        "addr:housenumber": "30",
        "addr:postcode": "4001",
        "addr:street": "Gerbergasse",
        "amenity": "cafe",
        "diet:vegan": "yes",
        "diet:vegetarian": "only",
        "indoor_seating": "yes",
        "internet_access": "wlan",
        "name": "unternehmen mitte",
        "opening_hours": "Mo-Th 08:00-00:00; Fr 08:00-01:00; Sa 09:00-01:00; Su 09:00-00:00",
        "outdoor_seating": "yes",
        "phone": "+41 61 263 36 63",
        "smoking": "outside",
        "toilets:wheelchair": "yes",
        "website": "https://www.mitte.ch/",
        "wheelchair": "yes",
        "wheelchair:description": "Haupteingang mit Treppen, Nebeneingang (Grünpfahlgasse) barrierefrei. WC mit Eurokey"
      }
    },
    {
      "type": "node",
      "id": 2381403698,
      "lat": 47.5677589,
      "lon": 7.5903535,
      "tags": {
        "addr:city": "Basel",
        "addr:housenumber": "69",
        "addr:postcode": "4057",
        "addr:street": "Klybeckstrasse",
        "amenity": "cafe",
        "indoor_seating": "yes",
        "internet_access": "yes",
        "name": "Café frühling",
        "opening_hours": "Mo-Fr 08:00-19:00; Sa,Su 09:00-19:00",
        "outdoor_seating": "yes",
        "smoking": "outside",
        "website": "https://www.cafe-fruehling.ch/",
        "wheelchair": "yes",
        "wheelchair:description": "Bitte den Haupteingang benutzen, von der Klybeckstrasse aus."
      }
    },
    {
      "type": "node",
      "id": 2434405556,
      "lat": 47.5734801,
      "lon": 7.5781155,
      "tags": {
        "amenity": "cafe",
        "name": "BaRquette",
        "phone": "+41 61 324 86 89"
      }
    },
    {
      "type": "node",
      "id": 2434405564,
      "lat": 47.5745192,
      "lon": 7.5778831,
      "tags": {
        "amenity": "cafe",
        "name": "Cafe",
        "operator": "SV Group"
      }
    },
    {
      "type": "node",
      "id": 2434405578,
      "lat": 47.5753674,
      "lon": 7.5782189,
      "tags": {
        "amenity": "cafe",
        "name": "Kukku Kaffeebar",
        "opening_hours": "Mo-Fr 07:30-15:00"
      }
    },
    {
      "type": "node",
      "id": 2434405583,
      "lat": 47.5751732,
      "lon": 7.5783268,
      "tags": {
        "amenity": "restaurant",
        "cuisine": "thai",
        "name": "Kukku",
        "opening_hours": "Mo-Fr 11:00-14:00",
        "phone": "+41 61 696 87 87",
        "smoking": "no",
        "website": "https://kukku.sv-group.ch/en/food/",
        "wheelchair": "yes"
      }
    },
    {
      "type": "node",
      "id": 2434405622,
      "lat": 47.5737076,
      "lon": 7.5793775,
      "tags": {
        "amenity": "restaurant",
        "cuisine": "italian",
        "name": "Osteria Dodici"
      }
    },
    {
      "type": "node",
      "id": 2434405628,
      "lat": 47.5746099,
      "lon": 7.5783102,
      "tags": {
        "amenity": "restaurant",
        "name": "Personalrestaurant",
        "operator": "SV Group"
      }
    },
    {
      "type": "node",
      "id": 2434407887,
      "lat": 47.573967,
      "lon": 7.5791413,
      "tags": {
        "amenity": "restaurant",
        "name": "Restaurant Choice"
      }
    },
    {
      "type": "node",
      "id": 2434407890,
      "lat": 47.5740444,
      "lon": 7.5785507,
      "tags": {
        "amenity": "restaurant",
        "name": "Restaurant Cloud"
      }
    },
    {
      "type": "node",
      "id": 2434407893,
      "lat": 47.5723622,
      "lon": 7.5803362,
      "tags": {
        "access": "private",
        "amenity": "cafe",
        "brand": "Starbucks",
        "brand:wikidata": "Q37158",
        "brand:wikipedia": "en:Starbucks",
        "cuisine": "coffee_shop",
        "microbrewery": "no",
        "name": "Starbucks",
        "official_name": "Starbucks Coffee",
        "takeaway": "yes"
      }
    },
    {
      "type": "node",
      "id": 2434407896,
      "lat": 47.5734024,
      "lon": 7.5809331,
      "tags": {
        "amenity": "restaurant",
        "cuisine": "sandwich",
        "name": "Snack Corner",
        "operator": "SV Group",
        "phone": "+41 61 324 39 23"
      }
    },
    {
      "type": "node",
      "id": 2434407899,
      "lat": 47.5748146,
      "lon": 7.5781215,
      "tags": {
        "amenity": "restaurant",
        "cuisine": "sandwich",
        "name": "Kiosk",
        "operator": "SV Group",
        "phone": "+41 61 324 39 23"
      }
    },
    {
      "type": "node",
      "id": 2434407900,
      "lat": 47.5729464,
      "lon": 7.5804932,
      "tags": {
        "amenity": "cafe",
        "name": "Visitors' café"
      }
    },
    {
      "type": "node",
      "id": 2434421992,
      "lat": 47.5713407,
      "lon": 7.5877225,
      "tags": {
        "amenity": "restaurant",
        "cuisine": "sandwich",
        "name": "Kiosk",
        "operator": "SV Group",
        "phone": "+41 61 324 39 23"
      }
    },
    {
      "type": "node",
      "id": 2447067532,
      "lat": 47.5532609,
      "lon": 7.591081,
      "tags": {
        "amenity": "restaurant",
        "check_date": "2024-08-28",
        "indoor_seating": "yes",
        "level": "0",
        "name": "Campari Bar",
        "opening_hours": "Mo,Su off; Tu-Th 11:30-23:30; Fr-Sa 11:30-24:00",
        "outdoor_seating": "yes",
        "payment:cash": "yes",
        "payment:credit_cards": "yes",
        "payment:debit_cards": "yes",
        "smoking": "outside",
        "wheelchair": "yes"
      }
    },
    {
      "type": "node",
      "id": 2485517211,
      "lat": 47.5792468,
      "lon": 7.5957406,
      "tags": {
        "addr:city": "Basel",
        "addr:country": "CH",
        "addr:housenumber": "70",
        "addr:postcode": "4057",
        "addr:street": "Hochbergerstrasse",
        "amenity": "restaurant",
        "cuisine": "steak_house",
        "email": "basel@tenderandloins.ch",
        "level": "0",
        "name": "TENDER & LOINS",
        "phone": "+41 61 6333020",
        "website": "https://www.tenderandloins.ch/"
      }
    },
    {
      "type": "node",
      "id": 2492181127,
      "lat": 47.5549114,
      "lon": 7.5887661,
      "tags": {
        "amenity": "restaurant",
        "indoor_seating": "yes",
        "name": "Brötlibar",
        "outdoor_seating": "yes",
        "smoking": "outside"
      }
    },
    {
      "type": "node",
      "id": 2559593325,
      "lat": 47.5673371,
      "lon": 7.5963892,
      "tags": {
        "amenity": "restaurant",
        "name": "Efringerhof",
        "phone": "+4161 692 11 75"
      }
    },
    {
      "type": "node",
      "id": 2573355484,
      "lat": 47.5471935,
      "lon": 7.5916641,
      "tags": {
        "addr:city": "Basel",
        "addr:housenumber": "19",
        "addr:postcode": "4051",
        "addr:street": "Centralbahnstrasse",
        "amenity": "restaurant",
        "contact:email": "info@restaurantsteinbock.ch",
        "contact:facebook": "https://www.facebook.com/Restaurant-Steinbock-586430461423173/",
        "contact:phone": "+41 61 272 7305",
        "contact:website": "http://www.restaurantsteinbock.ch/",
        "cuisine": "swiss",
        "indoor_seating": "yes",
        "name": "Steinbock",
        "opening_hours": "PH,Mo-Su 10:00-14:00,17:00-23:00",
        "operator": "Mustafa Yüksel",
        "operator:type": "private",
        "outdoor_seating": "yes",
        "smoking": "outside"
      }
    },
    {
      "type": "node",
      "id": 2578291823,
      "lat": 47.5550409,
      "lon": 7.5899719,
      "tags": {
        "addr:city": "Basel",
        "addr:housenumber": "6",
        "addr:postcode": "4051",
        "addr:street": "Barfüsserplatz",
        "amenity": "cafe",
        "contact:email": "info@cafehuguenin.ch",
        "contact:phone": "+41 61 272 05 50",
        "indoor_seating": "yes",
        "internet_access": "wlan",
        "internet_access:fee": "no",
        "name": "Grand Cafe Huguenin",
        "opening_hours": "Mo-Sa 07:00-19:00; Su 08:00-19:00; Dec 25 closed",
        "outdoor_seating": "yes",
        "smoking": "outside",
        "source": "survey",
        "website": "https://www.cafehuguenin.ch/"
      }
    },
    {
      "type": "node",
      "id": 2578294254,
      "lat": 47.5552409,
      "lon": 7.5900301,
      "tags": {
        "amenity": "restaurant",
        "cuisine": "italian;pizza;pasta",
        "indoor_seating": "yes",
        "name": "Pizzeria Centro am Barfi",
        "opening_hours": "Mo-Fr 11:30-14:30,18:00-24:00; Sa 00:00-01:00,11:30-14:30,18:00-24:00; Su 00:00-01:00,12:00-15:00,18:00-23:00",
        "outdoor_seating": "yes",
        "smoking": "outside",
        "website": "https://www.centroambarfi.ch/",
        "wheelchair": "limited"
      }
    },
    {
      "type": "node",
      "id": 2579133152,
      "lat": 47.5543914,
      "lon": 7.5893364,
      "tags": {
        "addr:city": "Basel",
        "addr:housenumber": "14",
        "addr:postcode": "4001",
        "addr:street": "Barfüsserplatz",
        "amenity": "restaurant",
        "cuisine": "pizza",
        "indoor_seating": "yes",
        "name": "da Roberto",
        "outdoor_seating": "yes",
        "smoking": "outside",
        "source": "survey"
      }
    },
    {
      "type": "node",
      "id": 2579603914,
      "lat": 47.5542064,
      "lon": 7.5984948,
      "tags": {
        "addr:city": "Basel",
        "addr:housenumber": "60",
        "addr:postcode": "4052",
        "addr:street": "St. Alban-Vorstadt",
        "amenity": "restaurant",
        "contact:phone": "+41 61 271 60 40",
        "cuisine": "regional;seasonal",
        "name": "St. Alban-Eck",
        "opening_hours": "Mo-Fr 10:00-14:00,17:00-24:00; Sa 18:00-24:00",
        "website": "https://stalbaneck.ch/"
      }
    },
    {
      "type": "node",
      "id": 2579987341,
      "lat": 47.5582729,
      "lon": 7.5863996,
      "tags": {
        "addr:city": "Basel",
        "addr:housenumber": "15",
        "addr:postcode": "4001",
        "addr:street": "Andreasplatz",
        "alt_name": "Roter Engel",
        "amenity": "cafe",
        "diet:vegan": "yes",
        "diet:vegetarian": "yes",
        "indoor_seating": "yes",
        "internet_access": "no",
        "name": "Ängel oder Aff",
        "opening_hours": "Mo 08:30-20:00, Tu-Th 08:30-22:00, Fr 08:30-23:00, Sa 09:00-23:00, Su 10:00-20:00",
        "outdoor_seating": "yes",
        "smoking": "outside",
        "website": "https://www.aengeloderaff.ch/"
      }
    },
    {
      "type": "node",
      "id": 2616015642,
      "lat": 47.5688305,
      "lon": 7.5795549,
      "tags": {
        "addr:city": "Basel",
        "addr:housenumber": "49",
        "addr:postcode": "4056",
        "addr:street": "Elsässerstrasse",
        "amenity": "restaurant",
        "capacity": "50",
        "cuisine": "regional",
        "indoor_seating": "yes",
        "name": "Vogesenstube",
        "note": "Gartenrestaurant",
        "outdoor_seating": "yes",
        "phone": "+41 61 321 92 77",
        "smoking": "outside"
      }
    },
    {
      "type": "node",
      "id": 2616015647,
      "lat": 47.5693206,
      "lon": 7.5791429,
      "tags": {
        "addr:city": "Basel",
        "addr:housenumber": "57",
        "addr:postcode": "4056",
        "addr:street": "Elsässerstrasse",
        "amenity": "restaurant",
        "indoor_seating": "yes",
        "name": "Bistro Munarts",
        "outdoor_seating": "yes",
        "smoking": "outside",
        "website": "https://www.munarts.com/"
      }
    },
    {
      "type": "node",
      "id": 2616020991,
      "lat": 47.5684632,
      "lon": 7.5802632,
      "tags": {
        "addr:city": "Basel",
        "addr:housenumber": "14",
        "addr:postcode": "4056",
        "addr:street": "Elsässerstrasse",
        "amenity": "restaurant",
        "capacity": "30",
        "cuisine": "pizza",
        "indoor_seating": "yes",
        "name": "Pizza Point",
        "note": "Internet",
        "outdoor_seating": "yes",
        "smoking": "outside",
        "wheelchair": "no"
      }
    },
    {
      "type": "node",
      "id": 2624405472,
      "lat": 47.5446816,
      "lon": 7.5949117,
      "tags": {
        "addr:city": "Basel",
        "addr:housenumber": "51",
        "addr:postcode": "4053",
        "addr:street": "Hochstrasse",
        "amenity": "restaurant",
        "check_date:opening_hours": "2023-03-14",
        "cuisine": "chinese",
        "name": "Restaurant FuTo",
        "opening_hours": "Mo-Fr 10:00-14:30, Mo-Sa 17:00-22:00+",
        "website": "https://www.restaurant-futo.ch/",
        "wheelchair": "yes"
      }
    },
    {
      "type": "node",
      "id": 2633816014,
      "lat": 47.5547279,
      "lon": 7.6110572,
      "tags": {
        "amenity": "restaurant",
        "indoor_seating": "yes",
        "name": "XX Large Pizzeria",
        "outdoor_seating": "yes"
      }
    },
    {
      "type": "node",
      "id": 2663868065,
      "lat": 47.5683075,
      "lon": 7.5800741,
      "tags": {
        "addr:city": "Basel",
        "addr:housenumber": "31",
        "addr:postcode": "4056",
        "addr:street": "Elsässerstrasse",
        "amenity": "fast_food",
        "cuisine": "pizza;kebab",
        "indoor_seating": "yes",
        "name": "Volta Pizza & Kebap Haus",
        "opening_hours": "Mo-Su 11:00-00:00",
        "outdoor_seating": "yes",
        "phone": "+41 61 3223030",
        "smoking": "outside",
        "src": "GVA_Basel",
        "wheelchair": "no"
      }
    },
    {
      "type": "node",
      "id": 2663868078,
      "lat": 47.5669753,
      "lon": 7.5792029,
      "tags": {
        "addr:city": "Basel",
        "addr:housenumber": "22",
        "addr:postcode": "4056",
        "addr:street": "Fatiostrasse",
        "amenity": "restaurant",
        "cuisine": "regional",
        "name": "Humor Labor Pello",
        "phone": "796728657",
        "src": "GVA_Basel",
        "website": "www.humorlaborpello.ch"
      }
    },
    {
      "type": "node",
      "id": 2684267823,
      "lat": 47.5518402,
      "lon": 7.5875877,
      "tags": {
        "addr:city": "Basel",
        "addr:housenumber": "60",
        "addr:postcode": "4051",
        "addr:street": "Steinenvorstadt",
        "amenity": "restaurant",
        "cuisine": "italian;pizza",
        "entrance": "yes",
        "indoor_seating": "yes",
        "level": "0",
        "name": "Restaurant Pizzeria Margherita",
        "opening_hours": "Oct-Mar Mo-Th 11:00-24:00; Oct-Mar Fr-Sa 11:00-01:00; Apr-Sep Mo-Th 11:00-23:00; Apr-Sep Fr-Sa 11:00-24:00; PH closed",
        "outdoor_seating": "yes",
        "phone": "+41 61 272 20 44",
        "smoking": "outside",
        "toilets": "yes",
        "website": "https://www.piadinabar-margherita.ch/",
        "wheelchair": "limited"
      }
    },
    {
      "type": "node",
      "id": 2777134670,
      "lat": 47.5850289,
      "lon": 7.6537679,
      "tags": {
        "addr:city": "Riehen",
        "addr:country": "CH",
        "addr:housenumber": "20",
        "addr:postcode": "4125",
        "addr:street": "Spitalweg",
        "amenity": "cafe",
        "name": "geistlich Diakonisches Zentrum"
      }
    },
    {
      "type": "node",
      "id": 2840757806,
      "lat": 47.5568738,
      "lon": 7.5748136,
      "tags": {
        "addr:city": "Basel",
        "addr:country": "CH",
        "addr:housenumber": "25",
        "addr:postcode": "4055",
        "addr:street": "Friedrichstrasse",
        "amenity": "restaurant",
        "cuisine": "peruvian",
        "diet:vegetarian": "yes",
        "email": "lima31basel@gmail.com",
        "indoor_seating": "yes",
        "name": "Lima 31",
        "opening_hours": "We-Th 18:00-22:00; Fr-Sa 18:00-22:00",
        "outdoor_seating": "yes",
        "phone": "+41613019191",
        "smoking": "outside",
        "website": "https://lima31.com/"
      }
    },
    {
      "type": "node",
      "id": 2901279854,
      "lat": 47.5551145,
      "lon": 7.6122362,
      "tags": {
        "amenity": "restaurant",
        "cuisine": "pizza;kebab",
        "name": "Multi Grill",
        "opening_hours": "PH,Mo-Su 10:00-22:00",
        "website": "http://www.froburg-basel.ch/"
      }
    },
    {
      "type": "node",
      "id": 2901279855,
      "lat": 47.5550403,
      "lon": 7.6119734,
      "tags": {
        "addr:city": "Basel",
        "addr:housenumber": "111",
        "addr:postcode": "4052",
        "addr:street": "Zürcherstrasse",
        "amenity": "restaurant",
        "cuisine": "italian;pizza",
        "indoor_seating": "yes",
        "name": "Pizzeria Froburg",
        "opening_hours": "Mo-Fr 10:00-14:00, Mo-Su 17:00-22:30",
        "outdoor_seating": "yes",
        "phone": "+41 613116767",
        "website": "https://www.pizzeriafroburg.ch/"
      }
    },
    {
      "type": "node",
      "id": 2901296694,
      "lat": 47.5663556,
      "lon": 7.5758801,
      "tags": {
        "addr:city": "Basel",
        "addr:housenumber": "129",
        "addr:postcode": "4056",
        "addr:street": "Mülhauserstrasse",
        "amenity": "cafe",
        "check_date": "2025-01-28",
        "check_date:currency:XBT": "2023-02-05",
        "check_date:smoking": "2025-01-28",
        "currency:XBT": "no",
        "email": "info@jelecafe.ch",
        "indoor_seating": "yes",
        "name": "Jêle Café",
        "opening_hours": "Tu-Su 10:00-19:00",
        "outdoor_seating": "yes",
        "payment:lightning": "no",
        "payment:lightning_contactless": "no",
        "payment:onchain": "no",
        "phone": "+41 76 4017991",
        "smoking": "outside",
        "website": "https://www.jelecafe.ch/",
        "wheelchair": "no"
      }
    },
    {
      "type": "node",
      "id": 2901296695,
      "lat": 47.566457,
      "lon": 7.5761162,
      "tags": {
        "amenity": "restaurant",
        "cuisine": "thai",
        "indoor_seating": "yes",
        "name": "Nordbahnhof",
        "outdoor_seating": "yes",
        "smoking": "outside",
        "wheelchair": "limited"
      }
    },
    {
      "type": "node",
      "id": 2901296696,
      "lat": 47.5701882,
      "lon": 7.5739597,
      "tags": {
        "amenity": "restaurant",
        "cuisine": "thai",
        "indoor_seating": "yes",
        "name": "Nordbahnhof",
        "outdoor_seating": "yes",
        "smoking": "outside"
      }
    },
    {
      "type": "node",
      "id": 2961150343,
      "lat": 47.5643051,
      "lon": 7.5630221,
      "tags": {
        "addr:city": "Basel",
        "addr:housenumber": "216",
        "addr:postcode": "4055",
        "addr:street": "Hegenheimerstrasse",
        "amenity": "restaurant",
        "check_date": "2025-05-19",
        "indoor_seating": "yes",
        "name": "Bali Umami Soulfood",
        "opening_hours": "Mo-Fr 11:30-14:00, Th,Fr 18:00-22:00",
        "outdoor_seating": "yes",
        "smoking": "outside",
        "website": "https://www.bali-umami.ch/"
      }
    },
    {
      "type": "node",
      "id": 3077292533,
      "lat": 47.566436,
      "lon": 7.597422,
      "tags": {
        "addr:city": "Basel",
        "addr:housenumber": "104",
        "addr:postcode": "4058",
        "addr:street": "Haltingerstrasse",
        "amenity": "restaurant",
        "contact:email": "info@tapeo.ch",
        "cuisine": "spanish",
        "name": "Tapeo Tapas Bar La Terraza",
        "opening_hours": "Tu-Su 17:00-23:30",
        "outdoor_seating": "yes",
        "phone": "+41 61 543 03 12",
        "smoking": "outside",
        "website": "http://www.tapeo.ch"
      }
    },
    {
      "type": "node",
      "id": 3207784678,
      "lat": 47.5687224,
      "lon": 7.597405,
      "tags": {
        "addr:city": "Basel",
        "addr:housenumber": "169",
        "addr:postcode": "4058",
        "addr:street": "Riehenring",
        "amenity": "fast_food",
        "name": "Musical Grill",
        "opening_hours": "Mo-Su 11:00-22:00",
        "website": "https://www.musical-grill.ch/",
        "wheelchair": "yes"
      }
    },
    {
      "type": "node",
      "id": 3207784739,
      "lat": 47.5700863,
      "lon": 7.596641,
      "tags": {
        "addr:city": "Basel",
        "addr:housenumber": "30",
        "addr:postcode": "4057",
        "addr:street": "Brombacherstrasse",
        "amenity": "restaurant",
        "indoor_seating": "yes",
        "name": "Rössli",
        "outdoor_seating": "yes",
        "smoking": "outside"
      }
    },
    {
      "type": "node",
      "id": 3207784771,
      "lat": 47.5698504,
      "lon": 7.5973694,
      "tags": {
        "addr:city": "Basel",
        "addr:housenumber": "44",
        "addr:postcode": "4057",
        "addr:street": "Brombacherstrasse",
        "amenity": "restaurant",
        "diet:vegan": "yes",
        "diet:vegetarian": "yes",
        "indoor_seating": "yes",
        "name": "Thai Café",
        "opening_hours": "Mo-Fr 11:30-13:30,17:30-22:30; Sa-Su 17:00-23:00",
        "outdoor_seating": "yes",
        "smoking": "outside",
        "website": "https://www.thaicafe.ch/",
        "wheelchair": "no"
      }
    },
    {
      "type": "node",
      "id": 3207784844,
      "lat": 47.5705566,
      "lon": 7.594893,
      "tags": {
        "addr:city": "Basel",
        "addr:housenumber": "74",
        "addr:postcode": "4057",
        "addr:street": "Horburgstrasse",
        "amenity": "restaurant",
        "cuisine": "argentinian;grill",
        "indoor_seating": "yes",
        "name": "Che que lomo",
        "opening_hours": "Mo-Th 11:30-14:00, 17:00-22:00; Fr 11:30-14:00, 17:00-23:00; Sa 17:00-23:00",
        "outdoor_seating": "yes",
        "smoking": "outside",
        "website": "https://www.chequelomo.ch/",
        "wheelchair": "no"
      }
    },
    {
      "type": "node",
      "id": 3207784899,
      "lat": 47.5701487,
      "lon": 7.596197,
      "tags": {
        "addr:city": "Basel",
        "addr:housenumber": "89",
        "addr:postcode": "4057",
        "addr:street": "Markgräflerstrasse",
        "amenity": "restaurant",
        "contact:phone": "+41 61 6910714",
        "indoor_seating": "yes",
        "name": "Habesha",
        "outdoor_seating": "yes",
        "smoking": "outside"
      }
    },
    {
      "type": "node",
      "id": 3208777028,
      "lat": 47.5658332,
      "lon": 7.5956113,
      "tags": {
        "addr:city": "Basel",
        "addr:housenumber": "112",
        "addr:postcode": "4057",
        "addr:street": "Hammerstrasse",
        "amenity": "restaurant",
        "cuisine": "greek",
        "name": "Urban Greek",
        "opening_hours": "Tu-Su 17:30-22:30",
        "phone": "+41 78 215 73 35",
        "website": "https://linktr.ee/urbangreek.ch"
      }
    },
    {
      "type": "node",
      "id": 3208777122,
      "lat": 47.5604591,
      "lon": 7.5917922,
      "tags": {
        "addr:city": "Basel",
        "addr:housenumber": "15",
        "addr:postcode": "4058",
        "addr:street": "Rheingasse",
        "amenity": "restaurant",
        "indoor_seating": "yes",
        "name": "Brauerzunft",
        "outdoor_seating": "yes",
        "smoking": "outside"
      }
    },
    {
      "type": "node",
      "id": 3208777648,
      "lat": 47.5617299,
      "lon": 7.5929437,
      "tags": {
        "addr:city": "Basel",
        "addr:housenumber": "5",
        "addr:postcode": "4058",
        "addr:street": "Untere Rebgasse",
        "amenity": "fast_food",
        "cuisine": "kebab;turkish",
        "diet:vegetarian": "has options",
        "indoor_seating": "yes",
        "name": "Dönerstop",
        "outdoor_seating": "yes",
        "smoking": "outside",
        "takeaway": "yes"
      }
    },
    {
      "type": "node",
      "id": 3208777742,
      "lat": 47.5662885,
      "lon": 7.5918563,
      "tags": {
        "addr:city": "Basel",
        "addr:housenumber": "60",
        "addr:postcode": "4057",
        "addr:street": "Feldbergstrasse",
        "amenity": "fast_food",
        "indoor_seating": "yes",
        "name": "Lu",
        "outdoor_seating": "yes",
        "smoking": "outside"
      }
    },
    {
      "type": "node",
      "id": 3208777922,
      "lat": 47.5585241,
      "lon": 7.5941531,
      "tags": {
        "addr:city": "Basel",
        "addr:housenumber": "89",
        "addr:postcode": "4058",
        "addr:street": "Oberer Rheinweg",
        "amenity": "cafe",
        "contact:facebook": "http://www.facebook.com/pulpoamrhein",
        "cuisine": "sandwich;bagel;ice_cream;cake;local;coffee_shop",
        "indoor_seating": "yes",
        "internet_access": "wlan",
        "name": "Pulpo",
        "opening_hours": "Mo-Fr 15:00-22:00; Sa,Su 12:00-22:00",
        "outdoor_seating": "yes",
        "phone": "+41 79 915 50 43",
        "smoking": "outside"
      }
    },
    {
      "type": "node",
      "id": 3220397149,
      "lat": 47.5673966,
      "lon": 7.6009155,
      "tags": {
        "addr:city": "Basel",
        "addr:housenumber": "50",
        "addr:postcode": "4058",
        "addr:street": "Mattenstrasse",
        "amenity": "restaurant",
        "indoor_seating": "yes",
        "name": "CHiCKPEA",
        "outdoor_seating": "no",
        "smoking": "no"
      }
    },
    {
      "type": "node",
      "id": 3224586205,
      "lat": 47.5682708,
      "lon": 7.6053713,
      "tags": {
        "addr:city": "Basel",
        "addr:housenumber": "106",
        "addr:postcode": "4058",
        "addr:street": "Maulbeerstrasse",
        "amenity": "restaurant",
        "check_date": "2025-05-30",
        "cuisine": "indian",
        "indoor_seating": "yes",
        "internet_access": "wlan",
        "internet_access:fee": "customers",
        "name": "The Chennai Kings",
        "opening_hours": "Tu-Sa 11:30-14:00, 17:30-22:00; Su 17:00-22:00",
        "outdoor_seating": "yes",
        "payment:cash": "yes",
        "payment:credit_cards": "yes",
        "payment:debit_cards": "yes",
        "phone": "+41 61 691 25 78",
        "smoking": "outside",
        "source": "survey",
        "wheelchair": "no"
      }
    },
    {
      "type": "node",
      "id": 3224586250,
      "lat": 47.568157,
      "lon": 7.6054465,
      "tags": {
        "addr:city": "Basel",
        "addr:housenumber": "235",
        "addr:postcode": "4058",
        "addr:street": "Schwarzwaldallee",
        "amenity": "restaurant",
        "check_date": "2025-05-30",
        "cuisine": "asian",
        "indoor_seating": "yes",
        "name": "Happy Wok",
        "opening_hours": "Tu-Fr 11:30-14:00,17:30-22:00; Sa 17:30-22:00; Su 11:30-14:00,17:30-22:00",
        "outdoor_seating": "yes",
        "smoking": "outside"
      }
    },
    {
      "type": "node",
      "id": 3226238689,
      "lat": 47.5827883,
      "lon": 7.6475895,
      "tags": {
        "addr:city": "Riehen",
        "addr:country": "CH",
        "addr:housenumber": "1",
        "addr:postcode": "4125",
        "addr:street": "Baselstrasse",
        "amenity": "cafe",
        "cuisine": "regional;italian",
        "indoor_seating": "yes",
        "name": "Dolce Vita",
        "outdoor_seating": "yes",
        "phone": "+41 61 641 34 45"
      }
    },
    {
      "type": "node",
      "id": 3226649487,
      "lat": 47.5516398,
      "lon": 7.5885572,
      "tags": {
        "addr:city": "Basel",
        "addr:housenumber": "26",
        "addr:postcode": "4051",
        "addr:street": "Steinentorstrasse",
        "amenity": "fast_food",
        "cuisine": "kebab",
        "indoor_seating": "yes",
        "name": "Restaurant Steinegrill",
        "opening_hours": "24/7",
        "outdoor_seating": "yes",
        "phone": "+41 61 271 13 30",
        "smoking": "outside"
      }
    },
    {
      "type": "node",
      "id": 3227887289,
      "lat": 47.5550335,
      "lon": 7.5887241,
      "tags": {
        "addr:city": "Basel",
        "addr:housenumber": "80",
        "addr:postcode": "4001",
        "addr:street": "Gerbergasse",
        "amenity": "fast_food",
        "indoor_seating": "yes",
        "name": "Döner Stop",
        "outdoor_seating": "yes",
        "smoking": "outside"
      }
    },
    {
      "type": "node",
      "id": 3237678599,
      "lat": 47.560353,
      "lon": 7.597781,
      "tags": {
        "addr:city": "Basel",
        "addr:housenumber": "15",
        "addr:postcode": "4058",
        "addr:street": "Hammerstrasse",
        "amenity": "restaurant",
        "cuisine": "italian",
        "name": "Restaurant Pizzeria Roma",
        "opening_hours": "Mo-Fr 11:30-14:00,18:00-23:30"
      }
    },
    {
      "type": "node",
      "id": 3285960469,
      "lat": 47.537095,
      "lon": 7.6082584,
      "tags": {
        "amenity": "restaurant",
        "indoor_seating": "yes",
        "name": "Job Factory",
        "outdoor_seating": "no"
      }
    },
    {
      "type": "node",
      "id": 3392587471,
      "lat": 47.5516697,
      "lon": 7.5884137,
      "tags": {
        "addr:city": "Basel",
        "addr:housenumber": "26",
        "addr:postcode": "4051",
        "addr:street": "Steinentorstrasse",
        "amenity": "restaurant",
        "cuisine": "italian;pizza",
        "indoor_seating": "yes",
        "name": "Artigiano",
        "outdoor_seating": "yes",
        "smoking": "outside",
        "website": "https://www.artigiano-pizzeria.com",
        "wheelchair": "limited"
      }
    },