{
  "version": 0.6,
  "generator": "Overpass API 0.7.62.7 375dc00a",
  "osm3s": {
    "timestamp_osm_base": "2025-07-01T21:07:45Z",
    "timestamp_areas_base": "2025-06-25T21:32:45Z",
    "copyright": "The data included in this document is from www.openstreetmap.org. The data is made available under ODbL."
  },
  "elements": [
    {
      "type": "node",
      "id": 53169760,
      "lat": 47.6734654,
      "lon": 9.0494867,
      "tags": {
        "amenity": "restaurant",
        "name": "Loewen"
      }
    },
    {
      "type": "node",
      "id": 89137671,
      "lat": 47.6643575,
      "lon": 9.1355013,
      "tags": {
        "amenity": "restaurant",
        "name": "Waaghaus",
        "website": "http://www.drachenburg.ch",
        "wheelchair": "no"
      }
    },
    {
      "type": "node",
      "id": 251369002,
      "lat": 47.5684003,
      "lon": 9.1099987,
      "tags": {
        "amenity": "restaurant",
        "name": "zum Trauben",
        "website": "https://www.trauben-weinfelden.ch/",
        "wheelchair": "no"
      }
    },
    {
      "type": "node",
      "id": 251369003,
      "lat": 47.5680791,
      "lon": 9.1107781,
      "tags": {
        "amenity": "restaurant",
        "indoor_seating": "yes",
        "name": "Rössli",
        "opening_hours": "Su-Tu 11:30-14:00,17:30-23:00; Sa 17:30-23:00",
        "outdoor_seating": "yes",
        "phone": "+41 71 622 30 90",
        "tourism": "hotel",
        "website": "http://www.roessli-weinfelden.ch",
        "wheelchair": "no"
      }
    },
    {
      "type": "node",
      "id": 251369004,
      "lat": 47.5689772,
      "lon": 9.1076383,
      "tags": {
        "amenity": "restaurant",
        "email": "info@eigenhof.ch",
        "fax": "+41 71 622 55 56",
        "name": "Wirtschaft zum Eigenhof",
        "opening_hours": "Mo 11:00-14:00; We-Su 11:00-14:00, 17:00-23:00",
        "operator": "Familie Hans-Kaspar Bornhauser",
        "outdoor_seating": "yes",
        "phone": "+41 71 622 55 27",
        "website": "https://www.eigenhof.ch/",
        "wheelchair": "no"
      }
    },
    {
      "type": "node",
      "id": 251369007,
      "lat": 47.5658415,
      "lon": 9.1079733,
      "tags": {
        "addr:city": "Weinfelden",
        "addr:housenumber": "2",
        "addr:postcode": "8570",
        "addr:street": "Bahnhofstrasse",
        "amenity": "restaurant",
        "name": "Eisenbahn",
        "opening_hours": "Mo-Sa 08:30-14:00,17:00-23:00",
        "payment:credit_cards": "yes",
        "payment:debit_cards": "yes",
        "phone": "+41 71 622 10 60",
        "website": "https://www.gasthof-eisenbahn.ch/",
        "wheelchair": "no"
      }
    },
    {
      "type": "node",
      "id": 251369014,
      "lat": 47.5641058,
      "lon": 9.1082947,
      "tags": {
        "addr:city": "Weinfelden",
        "addr:housenumber": "11",
        "addr:postcode": "8570",
        "addr:street": "Wilerstrasse",
        "amenity": "restaurant",
        "cuisine": "regional",
        "name": "Grüner Baum",
        "phone": "+41 71 622 43 80",
        "website": "https://www.gruenerbaum-weinfelden.ch/"
      }
    },
    {
      "type": "node",
      "id": 251369015,
      "lat": 47.5647012,
      "lon": 9.1079874,
      "tags": {
        "addr:city": "Weinfelden",
        "addr:housenumber": "8",
        "addr:postcode": "8570",
        "addr:street": "Wilerstrasse",
        "amenity": "restaurant",
        "cuisine": "italian",
        "name": "Pulcinella",
        "phone": "+41 71 997 00 00",
        "website": "https://www.pulcinella-weinfelden.ch"
      }
    },
    {
      "type": "node",
      "id": 251369016,
      "lat": 47.5649405,
      "lon": 9.1084125,
      "tags": {
        "amenity": "cafe",
        "name": "Mohn",
        "opening_hours": "Mo-Fr 06:30-18:30; Sa 06:30-14:00",
        "phone": "+41 71 622 85 55",
        "website": "https://www.beckmohn.ch/lokalitaet-mohnart.html"
      }
    },
    {
      "type": "node",
      "id": 251369019,
      "lat": 47.5652819,
      "lon": 9.1073063,
      "tags": {
        "amenity": "restaurant",
        "created_by": "JOSM",
        "cuisine": "italian",
        "name": "Pizzamania"
      }
    },
    {
      "type": "node",
      "id": 252912768,
      "lat": 47.6867108,
      "lon": 8.7495298,
      "tags": {
        "amenity": "restaurant",
        "cuisine": "italian",
        "name": "Da Pulcinella",
        "opening_hours": "Mo-Fr 10:00-14:00,17:00-22:30; Sa,Su 10:00-23:00",
        "wheelchair": "yes"
      }
    },
    {
      "type": "node",
      "id": 252912825,
      "lat": 47.6889133,
      "lon": 8.7535688,
      "tags": {
        "amenity": "restaurant",
        "cuisine": "italian",
        "internet_access": "wlan",
        "name": "Da Leone",
        "website": "https://ristorante-daleone.ch/"
      }
    },
    {
      "type": "node",
      "id": 267348705,
      "lat": 47.5669229,
      "lon": 9.1168402,
      "tags": {
        "amenity": "cafe",
        "diet:vegetarian": "yes",
        "name": "Strassmann",
        "opening_hours": "Mo-Sa 06:00-18:30; Sa 06:00-18:00; Su 08:00-18:00; PH 08:00-18:00",
        "website": "http://www.beck-strassmann.ch/",
        "wheelchair": "limited"
      }
    },
    {
      "type": "node",
      "id": 267348706,
      "lat": 47.5667078,
      "lon": 9.1165904,
      "tags": {
        "addr:housenumber": "50",
        "addr:postcode": "8570",
        "addr:street": "Amriswilerstrasse",
        "amenity": "restaurant",
        "cuisine": "italian_pizza",
        "name": "Toni's Ristorante Piz",
        "opening_hours": "Tu-Fr 10:00-14:00, 17:00-23:00; Sa 17:00-23:00; Su 17:00-22:00",
        "phone": "+41716226422",
        "website": "https://www.tonis-pizzeria.ch/"
      }
    },
    {
      "type": "node",
      "id": 267349350,
      "lat": 47.5628599,
      "lon": 9.1258333,
      "tags": {
        "amenity": "restaurant",
        "cuisine": "mexican",
        "name": "US-Mex",
        "website": "https://www.us-mex.ch/"
      }
    },
    {
      "type": "node",
      "id": 270077168,
      "lat": 47.6371418,
      "lon": 8.8991852,
      "tags": {
        "addr:city": "Eschenz",
        "addr:country": "CH",
        "addr:housenumber": "1",
        "addr:place": "Klingenzell",
        "addr:postcode": "8264",
        "amenity": "restaurant",
        "name": "Restaurant Klingenzellerhof",
        "opening_hours": "We,Th 10:00-21:00; Fr,Sa 10:00-22:00; PH,Su 10:00-21:00",
        "outdoor_seating": "yes",
        "website": "https://www.klingenzellerhof.ch/"
      }
    },
    {
      "type": "node",
      "id": 270800699,
      "lat": 47.555371,
      "lon": 8.8987088,
      "tags": {
        "amenity": "restaurant",
        "name": "Promenade",
        "wheelchair": "limited"
      }
    },
    {
      "type": "node",
      "id": 276660375,
      "lat": 47.584358,
      "lon": 8.8916595,
      "tags": {
        "amenity": "restaurant",
        "cuisine": "regional",
        "name": "Besenbeiz Geisslerstübli",
        "outdoor_seating": "yes",
        "tourism": "viewpoint",
        "website": "http://www.hirschi-weiningen.ch/baesae-beiz.html"
      }
    },
    {
      "type": "node",
      "id": 289451521,
      "lat": 47.5676569,
      "lon": 9.3802133,
      "tags": {
        "amenity": "restaurant",
        "cuisine": "regional",
        "name": "Schiff",
        "opening_hours": "We-Sa 11:00-14:30,18:00-22:30; Su 11:00-15:00; Mo,Tu off",
        "website": "https://schiff-romanshorn.ch",
        "wheelchair": "yes"
      }
    },
    {
      "type": "node",
      "id": 289454312,
      "lat": 47.5678845,
      "lon": 9.3824715,
      "tags": {
        "addr:housenumber": "62",
        "addr:street": "Hafenstrasse",
        "amenity": "restaurant",
        "name": "Bistro Panem",
        "phone": "+41715303030",
        "toilets:wheelchair": "yes",
        "website": "https://panem.ch",
        "wheelchair": "yes"
      }
    },
    {
      "type": "node",
      "id": 289738969,
      "lat": 47.5621975,
      "lon": 9.3340296,
      "tags": {
        "amenity": "restaurant",
        "name": "Waldschenke Romanshorn",
        "outdoor_seating": "yes",
        "phone": "+41 79 442 19 10",
        "website": "https://www.waldschenke-romanshorn.ch/"
      }
    },
    {
      "type": "node",
      "id": 292318521,
      "lat": 47.5723387,
      "lon": 9.1043425,
      "tags": {
        "amenity": "restaurant",
        "check_date": "2023-12-10",
        "name": "Gasthaus zur Rebe",
        "tourism": "guest_house"
      }
    },
    {
      "type": "node",
      "id": 292319327,
      "lat": 47.5697362,
      "lon": 9.1073794,
      "tags": {
        "amenity": "restaurant",
        "name": "Stiefel"
      }
    },
    {
      "type": "node",
      "id": 292322726,
      "lat": 47.5678902,
      "lon": 9.1064191,
      "tags": {
        "amenity": "restaurant",
        "cuisine": "thai",
        "name": "Thai Chilli"
      }
    },
    {
      "type": "node",
      "id": 292327261,
      "lat": 47.5818036,
      "lon": 9.1202416,
      "tags": {
        "addr:city": "Weinfelden",
        "addr:housenumber": "11",
        "addr:postcode": "8570",
        "addr:street": "Stelzenhofstrasse",
        "amenity": "restaurant",
        "cuisine": "regional",
        "ele": "655",
        "email": "info@stelzenhof.ch",
        "name": "Stelzenhof",
        "opening_hours": "Mo-Sa 11:00-24:00; Sa 9:00-20:00",
        "phone": "+41 71 622 40 10",
        "toilets:wheelchair": "no",
        "website": "https://www.stelzenhof.ch/",
        "wheelchair": "limited"
      }
    },
    {
      "type": "node",
      "id": 292526332,
      "lat": 47.5828724,
      "lon": 9.0885254,
      "tags": {
        "amenity": "restaurant",
        "check_date": "2023-12-10",
        "name": "Weinberg",
        "website": "http://www.wirtschaft-weinberg.ch/"
      }
    },
    {
      "type": "node",
      "id": 295833203,
      "lat": 47.461852,
      "lon": 8.9574825,
      "tags": {
        "addr:city": "Eschlikon TG",
        "addr:housenumber": "1",
        "addr:postcode": "8360",
        "addr:street": "Bahnhofstrasse",
        "amenity": "restaurant",
        "check_date": "2023-05-13",
        "cuisine": "chinese",
        "name": "Royal Garden"
      }
    },
    {
      "type": "node",
      "id": 298915781,
      "lat": 47.6463348,
      "lon": 8.8452273,
      "tags": {
        "addr:postcode": "8259",
        "amenity": "restaurant",
        "cuisine": "local;thai",
        "email": "info@rest-chaemihuette.ch",
        "name": "Chämihütte",
        "opening_hours": "We-Su 08:30-22:00",
        "phone": "+41527414300",
        "website": "https://www.rest-chaemihuette.ch"
      }
    },
    {
      "type": "node",
      "id": 302263177,
      "lat": 47.5683474,
      "lon": 9.109532,
      "tags": {
        "amenity": "restaurant",
        "name": "Wirtschaft zum Löwen",
        "website": "http://www.zum-loewen.ch/"
      }
    },
    {
      "type": "node",
      "id": 302263454,
      "lat": 47.5678523,
      "lon": 9.1107446,
      "tags": {
        "addr:city": "Weinfelden",
        "addr:country": "CH",
        "addr:housenumber": "12",
        "addr:postcode": "8570",
        "addr:street": "Amriswilerstrasse",
        "alt_name": "Migros Restaurant Weinfelden",
        "amenity": "restaurant",
        "branch": "Weinfelden Rösslifelsen",
        "check_date": "2025-02-15",
        "name": "Migros Restaurant",
        "opening_hours": "Mo-Fr 08:00-19:00, Sa 08:00-18:00; PH off",
        "operator": "Genossenschaft Migros Ostschweiz",
        "toilets:wheelchair": "yes",
        "website": "https://filialen.migros.ch/de/migros-restaurant-weinfelden-roesslifelsen",
        "wheelchair": "yes"
      }
    },
    {
      "type": "node",
      "id": 302263833,
      "lat": 47.5671735,
      "lon": 9.1088659,
      "tags": {
        "addr:city": "Weinfelden",
        "addr:country": "CH",
        "addr:housenumber": "2",
        "addr:postcode": "8570",
        "addr:street": "Marktstrasse",
        "amenity": "restaurant",
        "indoor_seating": "yes",
        "name": "Gambrinus",
        "outdoor_seating": "yes",
        "website": "https://www.gambrinus-weinfelden.ch/"
      }
    },
    {
      "type": "node",
      "id": 302264758,
      "lat": 47.5651139,
      "lon": 9.1084266,
      "tags": {
        "amenity": "fast_food",
        "created_by": "Potlatch 0.10c",
        "name": "Easy Food & Drink"
      }
    },
    {
      "type": "node",
      "id": 302267462,
      "lat": 47.5646115,
      "lon": 9.1155848,
      "tags": {
        "amenity": "restaurant",
        "created_by": "Potlatch 0.10c",
        "name": "Brauerei"
      }
    },
    {
      "type": "node",
      "id": 306375875,
      "lat": 47.5611904,
      "lon": 8.8936483,
      "tags": {
        "addr:housenumber": "23",
        "addr:postcode": "8500",
        "addr:street": "Industriestrasse",
        "amenity": "restaurant",
        "email": "beiz@eisenwerk.ch",
        "internet_access": "wlan",
        "name": "Eisenbeiz",
        "opening_hours": "Mo-Th 09:00-14:00, 17:00-23:00; Fr 09:00-14:00, 16:00-23:00; Sa 17:00-23:55",
        "phone": "+41 52 728 89 89",
        "website": "https://www.eisenwerk.ch/beiz/",
        "wheelchair": "limited"
      }
    },
    {
      "type": "node",
      "id": 317022091,
      "lat": 47.5951705,
      "lon": 9.0337046,
      "tags": {
        "amenity": "restaurant",
        "name": "Obstgarten",
        "wheelchair": "no"
      }
    },
    {
      "type": "node",
      "id": 317022093,
      "lat": 47.5956837,
      "lon": 9.0324907,
      "tags": {
        "amenity": "restaurant",
        "name": "Schäfli",
        "website": "https://www.schaefli-wigoltingen.ch/",
        "wikidata": "Q134879445"
      }
    },
    {
      "type": "node",
      "id": 321848664,
      "lat": 47.5885859,
      "lon": 9.0138914,
      "tags": {
        "amenity": "restaurant",
        "name": "Landgasthof Wartegg",
        "website": "https://www.landgasthof-wartegg.ch/",
        "wheelchair": "yes"
      }
    },
    {
      "type": "node",
      "id": 343086247,
      "lat": 47.639807,
      "lon": 9.2054457,
      "tags": {
        "amenity": "restaurant",
        "created_by": "Potlatch 0.10f",
        "name": "Bären",
        "wheelchair": "no"
      }
    },
    {
      "type": "node",
      "id": 345684425,
      "lat": 47.4826153,
      "lon": 9.2450401,
      "tags": {
        "amenity": "restaurant",
        "email": "info@waldschenke-bischofszell.ch",
        "name": "Waldschenke",
        "operator": "Maag Gasteo AG",
        "phone": "+41 71 422 16 45",
        "website": "http://www.waldschenke-bischofszell.ch"
      }
    },
    {
      "type": "node",
      "id": 353671761,
      "lat": 47.6732694,
      "lon": 9.0321128,
      "tags": {
        "amenity": "restaurant",
        "cuisine": "regional",
        "name": "Seestern",
        "toilets:wheelchair": "no",
        "wheelchair": "yes"
      }
    },
    {
      "type": "node",
      "id": 355163620,
      "lat": 47.5671174,
      "lon": 9.1065267,
      "tags": {
        "addr:city": "Weinfelden",
        "addr:country": "CH",
        "addr:housenumber": "18",
        "addr:postcode": "8570",
        "addr:street": "Pestalozzistrasse",
        "amenity": "cafe",
        "email": "lastatione@beckmohn.ch",
        "name": "La Stazione",
        "opening_hours": "Mo-Fr 06:00-20:00; Sa 07:00-17:00",
        "phone": "+41 71 620 23 37",
        "shop": "bakery",
        "website": "https://www.beckmohn.ch/cafe-la-stazione.html",
        "wheelchair": "yes"
      }
    },
    {
      "type": "node",
      "id": 374063824,
      "lat": 47.5823434,
      "lon": 9.044616,
      "tags": {
        "amenity": "restaurant",
        "name": "Rössli"
      }
    },
    {
      "type": "node",
      "id": 388167203,
      "lat": 47.5988534,
      "lon": 8.9936582,
      "tags": {
        "amenity": "cafe",
        "leisure": "miniature_golf",
        "name": "Minigolfpark Müllheim",
        "wheelchair": "yes"
      }
    },
    {
      "type": "node",
      "id": 392438414,
      "lat": 47.5040719,
      "lon": 9.3412633,
      "tags": {
        "amenity": "restaurant",
        "name": "Landhaus"
      }
    },
    {
      "type": "node",
      "id": 414185647,
      "lat": 47.5831077,
      "lon": 8.8662024,
      "tags": {
        "amenity": "restaurant",
        "name": "Pfisterei"
      }
    },
    {
      "type": "node",
      "id": 422466280,
      "lat": 47.4767862,
      "lon": 8.9988407,
      "tags": {
        "amenity": "restaurant",
        "cuisine": "regional",
        "indoor_seating": "yes",
        "name": "Pöschtli",
        "opening_hours": "Mo-Fr 08:00-12:00,09:30-17:30",
        "outdoor_seating": "yes"
      }
    },
    {
      "type": "node",
      "id": 426784033,
      "lat": 47.5830331,
      "lon": 8.8663322,
      "tags": {
        "amenity": "restaurant",
        "check_date": "2023-10-22",
        "cuisine": "regional",
        "name": "Restaurant Mühle",
        "opening_hours": "Mo-Su 08:30-23:30"
      }
    },
    {
      "type": "node",
      "id": 427620804,
      "lat": 47.4762294,
      "lon": 8.9144309,
      "tags": {
        "amenity": "restaurant",
        "cuisine": "regional",
        "name": "Ochsen"
      }
    },
    {
      "type": "node",
      "id": 440853115,
      "lat": 47.5011375,
      "lon": 8.9548257,
      "tags": {
        "addr:city": "Wängi",
        "addr:country": "CH",
        "addr:housenumber": "1",
        "addr:postcode": "9545",
        "addr:street": "Lommiserstrasse",
        "amenity": "restaurant",
        "email": "info@linde-waengi.ch",
        "name": "Gasthof Linde",
        "opening_hours": "Tu-Sa 08:00-24:00; Su 08:00-19:00",
        "phone": "+41 52 378 12 15",
        "tourism": "hotel",
        "website": "https://www.linde-waengi.ch/",
        "wheelchair": "limited"
      }
    },
    {
      "type": "node",
      "id": 454835927,
      "lat": 47.6752685,
      "lon": 8.7854282,
      "tags": {
        "addr:city": "Diessenhofen",
        "addr:place": "Schupfen",
        "addr:postcode": "8253",
        "amenity": "restaurant",
        "contact:phone": "+41 52 6571042",
        "contact:website": "https://schupfen.ch",
        "email": "info@schupfen.ch",
        "name": "Schupfen",
        "old_addr:housenumber": "501",
        "old_addr:street": "Steinerstrasse",
        "opening_hours": "We-Su 10:00-23:00",
        "opening_hours:kitchen": "We-Su 11:30-13:45,18:00-23:00",
        "outdoor_seating": "yes",
        "phone": "+41 52 657 10 42",
        "reservation": "recommended",
        "smoking": "outside",
        "website": "https://schupfen.ch/",
        "wheelchair": "limited"
      }
    },
    {
      "type": "node",
      "id": 461753291,
      "lat": 47.6472257,
      "lon": 9.1992221,
      "tags": {
        "addr:housenumber": "52",
        "addr:postcode": "8280",
        "addr:street": "Promenadenstrasse",
        "amenity": "restaurant",
        "cuisine": "regional",
        "email": "info@fischerhaus.ch",
        "name": "Fischerhaus",
        "opening_hours": "Mo-Su 10:00-14:00, 17:30-20:30",
        "outdoor_seating": "yes",
        "phone": "+41716881877",
        "self_service": "no",
        "website": "https://fischerhaus.ch/",
        "website:menu": "https://fischerhaus.ch/restaurant/speisen-und-getraenke/",
        "wheelchair": "yes"
      }
    },
    {
      "type": "node",
      "id": 461753294,
      "lat": 47.6469607,
      "lon": 9.1957184,
      "tags": {
        "amenity": "restaurant",
        "name": "Seegarten",
        "wheelchair": "limited"
      }
    },
    {
      "type": "node",
      "id": 461871070,
      "lat": 47.6657509,
      "lon": 9.1481973,
      "tags": {
        "addr:city": "Tägerwilen",
        "addr:country": "CH",
        "addr:postcode": "8274",
        "addr:street": "Rheinweg",
        "amenity": "restaurant",
        "check_date": "2023-06-21",
        "name": "Kuhhorn",
        "phone": "+41716692270",
        "wheelchair": "yes"
      }
    },
    {
      "type": "node",
      "id": 465236141,
      "lat": 47.6032609,
      "lon": 9.2088813,
      "tags": {
        "addr:city": "Illighausen",
        "addr:country": "CH",
        "addr:postcode": "8574",
        "addr:street": "Kirchstrasse",
        "amenity": "restaurant",
        "name": "Restaurant Schwizerland"
      }
    },
    {
      "type": "node",
      "id": 466167362,
      "lat": 47.6614228,
      "lon": 9.1100196,
      "tags": {
        "amenity": "cafe",
        "name": "Haus zum fröhlichen Gast"
      }
    },
    {
      "type": "node",
      "id": 469401472,
      "lat": 47.5550165,
      "lon": 9.041509,
      "tags": {
        "addr:city": "Bänikon",
        "addr:housenumber": "136",
        "addr:postcode": "8514",
        "addr:street": "Wilerstrasse",
        "amenity": "restaurant",
        "name": "Ochsen",
        "website": "https://www.ochsen-baenikon.ch/"
      }
    },
    {
      "type": "node",
      "id": 472312786,
      "lat": 47.6510015,
      "lon": 9.1818328,
      "tags": {
        "amenity": "restaurant",
        "name": "Mini-Golf",
        "wheelchair": "yes"
      }
    },
    {
      "type": "node",
      "id": 472318598,
      "lat": 47.6442012,
      "lon": 9.2120644,
      "tags": {
        "amenity": "restaurant",
        "ele": "398.11",
        "name": "Schlössli",
        "wheelchair": "limited",
        "wpt_description": "23-AUG-09 15:48:41"
      }
    },
    {
      "type": "node",
      "id": 474419280,
      "lat": 47.5306961,
      "lon": 9.4018555,
      "tags": {
        "addr:city": "Frasnacht",
        "addr:postcode": "9320",
        "amenity": "fast_food",
        "name": "Fram Asia Takeaway"
      }
    },
    {
      "type": "node",
      "id": 474764716,
      "lat": 47.6036806,
      "lon": 9.2841046,
      "tags": {
        "amenity": "restaurant",
        "name": "Galerie Hörnli"
      }
    },
    {
      "type": "node",
      "id": 474764720,
      "lat": 47.6064298,
      "lon": 9.2837506,
      "tags": {
        "amenity": "restaurant",
        "name": "Hotel Restaurant Seemöwe",
        "tourism": "hotel"
      }
    },
    {
      "type": "node",
      "id": 494981743,
      "lat": 47.482012,
      "lon": 8.9910576,
      "tags": {
        "addr:city": "Münchwilen TG",
        "addr:housenumber": "31",
        "addr:postcode": "9542",
        "addr:street": "Frauenfelderstrasse",
        "amenity": "restaurant",
        "cuisine": "thai",
        "name": "Thai Restaurant Freihof",
        "phone": "+41 71 966 37 00",
        "website": "https://www.freihof-thai.ch/"
      }
    },
    {
      "type": "node",
      "id": 498740089,
      "lat": 47.6044909,
      "lon": 9.0098944,
      "tags": {
        "addr:city": "Müllheim Dorf",
        "addr:housenumber": "52",
        "addr:postcode": "8555",
        "addr:street": "Kreuzlingerstrasse",
        "amenity": "restaurant",
        "cuisine": "italian;pasta;pizza",
        "delivery": "Tu-Su 17:30-22:30",
        "internet_access": "wlan",
        "name": "Il Castello",
        "opening_hours": "Tu-Su 11:00-14:00,17:00-23:00",
        "opening_hours:kitchen": "Tu-Su 11:00-13:30,17:00-22:00",
        "outdoor_seating": "yes",
        "phone": "+41527631153",
        "reservation": "yes",
        "smoking": "no",
        "takeaway": "yes",
        "website": "https://www.pizzeria-castello.ch/",
        "wheelchair": "yes"
      }
    },
    {
      "type": "node",
      "id": 503492050,
      "lat": 47.6650975,
      "lon": 9.1323091,
      "tags": {
        "addr:city": "Gottlieben",
        "addr:country": "CH",
        "addr:housenumber": "9",
        "addr:postcode": "8274",
        "addr:street": "Espenstrasse",
        "amenity": "cafe",
        "email": "gottlieben@gottlieber.ch",
        "name": "Gottlieber Seecafe",
        "outdoor_seating": "yes",
        "phone": "+41 71 6670177",
        "website": "https://www.gottlieber.ch/de/shops-cafes/seecafe-gottlieben",
        "wheelchair": "yes"
      }
    },
    {
      "type": "node",
      "id": 506264171,
      "lat": 47.479326,
      "lon": 8.9994109,
      "tags": {
        "addr:city": "Münchwilen (TG)",
        "addr:housenumber": "17",
        "addr:postcode": "9542",
        "addr:street": "Weinfelderstrasse",
        "amenity": "restaurant",
        "cuisine": "italian",
        "indoor_seating": "yes",
        "name": "Salta In Bocca",
        "opening_hours": "Su-Tu,Th,Fr 11:30-14:00,17:30-23:00; Sa 17:30-23:00",
        "outdoor_seating": "yes",
        "phone": "+41 71 966 21 41",
        "website": "https://saltainbocca.ch"
      }
    },
    {
      "type": "node",
      "id": 543361242,
      "lat": 47.4934394,
      "lon": 9.4636821,
      "tags": {
        "addr:city": "Horn",
        "addr:postcode": "9326",
        "amenity": "restaurant",
        "name": "Costa Verde",
        "wheelchair": "yes"
      }
    },
    {
      "type": "node",
      "id": 550286347,
      "lat": 47.6006211,
      "lon": 9.0003049,
      "tags": {
        "amenity": "restaurant",
        "name": "Adler",
        "wheelchair": "limited"
      }
    },
    {
      "type": "node",
      "id": 567443026,
      "lat": 47.55846,
      "lon": 8.9006739,
      "tags": {
        "addr:city": "Frauenfeld",
        "addr:housenumber": "2",
        "addr:postcode": "8500",
        "addr:street": "Hohenzornstrasse",
        "amenity": "restaurant",
        "description:covid19": "Siehe auch http://www.brauhaus.ch/xml_1/internet/de/application/d2/f54.cfm - Vorbestellung per Telefon von 10:00-15:00 oder Email an info@brauhaus.ch möglich",
        "email": "frauenfeld@brauhaus.ch",
        "microbrewery": "yes",
        "name": "Brauhaus",
        "opening_hours": "Mo-Th 08:00-23:30; Fr 08:00-24:00; Sa 11:00-24:00; Su 10:00-22:00",
        "opening_hours:covid19": "Mo-Fr 11:00-14:00",
        "operator": "Brauhaus Sternen AG",
        "outdoor_seating": "yes",
        "phone": "+41 52 728 99 09",
        "takeaway": "yes",
        "takeaway:covid19": "only",
        "website": "https://www.brauhaus.ch/"
      }
    },
    {
      "type": "node",
      "id": 570058618,
      "lat": 47.5731844,
      "lon": 8.8891785,
      "tags": {
        "alt_name": "Restaurant Kanönli",
        "amenity": "restaurant",
        "name": "Kanönli",
        "opening_hours": "Mo-Fr 07:30-15:30",
        "opening_hours:covid19": "Mo-Fr 11:00-14:00",
        "website": "https://www.befreshcatering.ch/kanoenli/"
      }
    },
    {
      "type": "node",
      "id": 570664364,
      "lat": 47.6087307,
      "lon": 8.8720986,
      "tags": {
        "amenity": "restaurant",
        "name": "Hirschen"
      }
    },
    {
      "type": "node",
      "id": 599722226,
      "lat": 47.6154091,
      "lon": 9.05384,
      "tags": {
        "amenity": "restaurant",
        "name": "Golfclub Lipperswil",
        "website": "https://golfswitzerland.ch/",
        "wheelchair": "no"
      }
    },
    {
      "type": "node",
      "id": 599722271,
      "lat": 47.6216163,
      "lon": 9.0587494,
      "tags": {
        "addr:city": "Lipperswil",
        "addr:country": "CH",
        "addr:housenumber": "6",
        "addr:postcode": "8564",
        "addr:street": "Golfpanorama",
        "amenity": "restaurant",
        "name": "Lion d’or",
        "website": "https://www.golfpanorama.ch/"
      }
    },
    {
      "type": "node",
      "id": 606130605,
      "lat": 47.5536966,
      "lon": 8.8604266,
      "tags": {
        "amenity": "restaurant",
        "delivery": "yes",
        "name": "Restaurant Wiesental",
        "opening_hours": "Mo-Fr 08:00-23:00; Su 10:00-16:00",
        "opening_hours:covid19": "Mo-Fr 11:00-14:00,18:00-20:00; Sa 18:00-20:00",
        "takeaway": "yes",
        "website": "https://www.restaurant-wiesental.ch/"
      }
    },
    {
      "type": "node",
      "id": 616347926,
      "lat": 47.5641992,
      "lon": 9.1060643,
      "tags": {
        "addr:city": "Weinfelden",
        "addr:country": "CH",
        "addr:housenumber": "1",
        "addr:postcode": "8570",
        "addr:street": "Falkenstrasse",
        "amenity": "restaurant",
        "contact:phone": "+41 71 622 57 22",
        "contact:website": "www.pizzeria-falken.ch",
        "cuisine": "italian",
        "name": "Falken",
        "tourism": "hotel",
        "wheelchair": "no"
      }
    },
    {
      "type": "node",
      "id": 617254661,
      "lat": 47.5072508,
      "lon": 9.414318,
      "tags": {
        "addr:city": "Arbon",
        "addr:postcode": "9320",
        "amenity": "restaurant",
        "brewery": "Schützengarten",
        "name": "Boccia Club"
      }
    },
    {
      "type": "node",
      "id": 618354424,
      "lat": 47.4234516,
      "lon": 8.9123252,
      "tags": {
        "access:covid19": "yes",
        "addr:city": "Schmidrüti",
        "addr:housenumber": "5",
        "addr:postcode": "8495",
        "addr:street": "Ober-Hamberg",
        "amenity": "restaurant",
        "capacity": "100",
        "cuisine": "regional;sandwich;ice_cream;thai;coffee_shop;seafood;german",
        "delivery": "yes",
        "delivery:covid19": "yes",
        "diet:diabetes": "yes",
        "diet:gluten_free": "yes",
        "diet:vegan": "yes",
        "diet:vegetarian": "yes",
        "drive_through:covid19": "no",
        "ele": "870",
        "internet_access": "wlan",
        "name": "Sternen Sitzberg",
        "opening_hours": "Mo-Su; We off",
        "opening_hours:covid19": "Mo,Tu,Th-Su,PH 09:00-20:00",
        "outdoor_seating": "yes",
        "phone": "+41 52 385 13 42",
        "reservation": "yes",
        "smoking": "outside",
        "takeaway": "yes",
        "takeaway:covid19": "yes",
        "toilets": "yes",
        "toilets:wheelchair": "yes",
        "website": "https://sternen-sitzberg.ch/",
        "wheelchair": "yes"
      }
    },
    {
      "type": "node",
      "id": 678581067,
      "lat": 47.6246928,
      "lon": 9.2480474,
      "tags": {
        "amenity": "restaurant",
        "name": "Frohsinn"
      }
    },
    {
      "type": "node",
      "id": 678581072,
      "lat": 47.62619,
      "lon": 9.2509314,
      "tags": {
        "amenity": "restaurant",
        "name": "Landgasthof Sonne",
        "tourism": "hotel",
        "wheelchair": "no"
      }
    },
    {
      "type": "node",
      "id": 682384302,
      "lat": 47.6529283,
      "lon": 8.8441846,
      "tags": {
        "addr:city": "Kaltenbach",
        "addr:country": "CH",
        "addr:housenumber": "10",
        "addr:postcode": "8259",
        "addr:street": "Hauptstrasse",
        "amenity": "restaurant",
        "name": "Löwen",
        "phone": "+41 52 741 23 21",
        "tourism": "guest_house"
      }
    },
    {
      "type": "node",
      "id": 704506978,
      "lat": 47.5546445,
      "lon": 9.1966209,
      "tags": {
        "amenity": "restaurant",
        "is_in": "Donzhausen",
        "name": "Löwen",
        "opening_hours": "Tu-Fr 06:00-19:00; Sa,Su 06:00-18:00"
      }
    },
    {
      "type": "node",
      "id": 728257795,
      "lat": 47.6446136,
      "lon": 9.1794659,
      "tags": {
        "amenity": "restaurant",
        "cuisine": "chinese",
        "name": "Restaurant Chinastübli",
        "wheelchair": "no"
      }
    },
    {
      "type": "node",
      "id": 729993504,
      "lat": 47.5024522,
      "lon": 9.2472469,
      "tags": {
        "amenity": "restaurant",
        "cuisine": "regional",
        "name": "Hirschen"
      }
    },
    {
      "type": "node",
      "id": 747419711,
      "lat": 47.4965464,
      "lon": 9.2977965,
      "tags": {
        "amenity": "restaurant",
        "name": "Gertau",
        "opening_hours": "Apr-Sep",
        "outdoor_seating": "yes"
      }
    },
    {
      "type": "node",
      "id": 767451967,
      "lat": 47.5897385,
      "lon": 9.333611,
      "tags": {
        "amenity": "restaurant",
        "name": "Strandbad Uttwil",
        "wheelchair": "yes"
      }
    },
    {
      "type": "node",
      "id": 803004536,
      "lat": 47.5539264,
      "lon": 8.8944577,
      "tags": {
        "amenity": "restaurant",
        "cuisine": "thai",
        "diet:vegetarian": "yes",
        "level": "0",
        "name": "Nuk Tschokdee",
        "opening_hours": "Mo-Sa 11:00-14:00,17:00+; Su 17:00+",
        "payment:cash": "yes",
        "payment:twint": "yes",
        "reusable_packaging:offer": "yes",
        "takeaway": "yes",
        "wheelchair": "no"
      }
    },
    {
      "type": "node",
      "id": 823298125,
      "lat": 47.5964612,
      "lon": 8.9513474,
      "tags": {
        "amenity": "cafe",
        "name": "Café Confiserie Bürgi",
        "wheelchair": "limited"
      }
    },
    {
      "type": "node",
      "id": 838559182,
      "lat": 47.4886654,
      "lon": 8.9031059,
      "tags": {
        "amenity": "restaurant",
        "cuisine": "regional",
        "name": "Linde",
        "payment:credit_cards": "yes",
        "payment:debit_cards": "yes",
        "tourism": "hotel",
        "wheelchair": "limited",
        "wheelchair:description": "nur Garten ist rollstuhlgängig"
      }
    },
    {
      "type": "node",
      "id": 838559198,
      "lat": 47.4911181,
      "lon": 8.8991987,
      "tags": {
        "amenity": "cafe",
        "check_date": "2023-04-24",
        "name": "Casasegreto",
        "opening_hours": "Mo 08:30-21:00; We-Fr 08:30-23:00; Sa 08:30-18:00; Su 14:00-20:00",
        "wheelchair": "limited"
      }
    },
    {
      "type": "node",
      "id": 852514129,
      "lat": 47.4786968,
      "lon": 8.9031781,
      "tags": {
        "amenity": "restaurant",
        "cuisine": "asian",
        "name": "Schmitte",
        "name:de": "Restaurant Tibet Garten",
        "name:en": "Restaurant Tibet Garten",
        "opening_hours": "Mo-Tu, Th-Fr 10:00-14:00, 17:00-22:00; Sa 11:30-23:00; Su 17:00-21:00",
        "wheelchair": "no"
      }
    },
    {
      "type": "node",
      "id": 875449048,
      "lat": 47.5520763,
      "lon": 8.8852999,
      "tags": {
        "air_conditioning": "yes",
        "amenity": "restaurant",
        "cuisine": "pizza",
        "diet:vegetarian": "yes",
        "indoor_seating": "yes",
        "name": "Pizza Pronto",
        "opening_hours": "Tu-Sa 11:00-13:30; Tu-Su 17:00-22:00; Su,PH 17:00-22:00",
        "outdoor_seating": "yes",
        "smoking": "outside",
        "wheelchair": "no"
      }
    },
    {
      "type": "node",
      "id": 875621074,
      "lat": 47.6746334,
      "lon": 9.0173376,
      "tags": {
        "amenity": "restaurant",
        "name": "Hirschen",
        "toilets:wheelchair": "no",
        "wheelchair": "no"
      }
    },
    {
      "type": "node",
      "id": 894553995,
      "lat": 47.5630951,
      "lon": 9.1253678,
      "tags": {
        "amenity": "restaurant",
        "name": "Bistro"
      }
    },
    {
      "type": "node",
      "id": 919517996,
      "lat": 47.6079776,
      "lon": 9.3019618,
      "tags": {
        "amenity": "restaurant",
        "check_date": "2025-04-21",
        "name": "Sunnehüsli",
        "wheelchair": "yes"
      }
    },
    {
      "type": "node",
      "id": 977271029,
      "lat": 47.4867649,
      "lon": 8.9069925,
      "tags": {
        "amenity": "cafe",
        "name": "Wähen-Alp",
        "wheelchair": "no"
      }
    },
    {
      "type": "node",
      "id": 977463679,
      "lat": 47.6705966,
      "lon": 8.7503922,
      "tags": {
        "amenity": "cafe",
        "check_date:opening_hours": "2024-02-21",
        "delivery": "no",
        "internet_access": "no",
        "name": "Beda Kafi",
        "opening_hours": "Mo-Sa 07:00-17:00; Su 08:00-17:00",
        "smoking": "outside",
        "website": "http://www.bedakafi.ch/"
      }
    },
    {
      "type": "node",
      "id": 1014231758,
      "lat": 47.4616495,
      "lon": 8.9966381,
      "tags": {
        "addr:city": "Sirnach",
        "addr:housenumber": "2",
        "addr:postcode": "8370",
        "addr:street": "Fischingerstrasse",
        "amenity": "restaurant",
        "cuisine": "regional",
        "indoor_seating": "yes",
        "name": "Gasthaus Engel",
        "opening_hours": "We-Sa 09:00-23:00; Su 10:00-16:00",
        "outdoor_seating": "no",
        "phone": "+41 71 966 31 31",
        "website": "https://engel-sirnach.ch/",
        "wheelchair": "no"
      }
    },
    {
      "type": "node",
      "id": 1108400758,
      "lat": 47.5668659,
      "lon": 9.1062149,
      "tags": {
        "amenity": "restaurant",
        "check_date": "2024-09-16",
        "cuisine": "italian;turkish",
        "indoor_seating": "yes",
        "name": "Gleis 1",
        "outdoor_seating": "yes",
        "website": "https://www.gleis-1-bistro.ch/",
        "wheelchair": "no"
      }
    },
    {
      "type": "node",
      "id": 1118866881,
      "lat": 47.5634923,
      "lon": 9.3771533,
      "tags": {
        "amenity": "restaurant",
        "name": "Coop",
        "toilets:wheelchair": "yes",
        "wheelchair": "yes"
      }
    },
    {
      "type": "node",
      "id": 1135000712,
      "lat": 47.6507663,
      "lon": 8.8832098,
      "tags": {
        "amenity": "restaurant",
        "cuisine": "regional",
        "name": "Wasserfloh"
      }
    },
    {
      "type": "node",
      "id": 1255608005,
      "lat": 47.4402818,
      "lon": 9.0088908,
      "tags": {
        "amenity": "restaurant",
        "indoor_seating": "yes",
        "name": "Cafeteria",
        "outdoor_seating": "yes"
      }
    },
    {
      "type": "node",
      "id": 1306144099,
      "lat": 47.5605467,
      "lon": 8.915819,
      "tags": {
        "amenity": "restaurant",
        "indoor_seating": "yes",
        "name": "Plättli",
        "opening_hours": "Mo-Sa 11:30-21:30; Su 11:00-19:30",
        "outdoor_seating": "yes",
        "wheelchair": "yes"
      }
    },
    {
      "type": "node",
      "id": 1361000462,
      "lat": 47.6226707,
      "lon": 8.9385549,
      "tags": {
        "addr:city": "Lanzenneunforn",
        "addr:country": "CH",
        "addr:housenumber": "1",
        "addr:postcode": "8506",
        "addr:street": "Liebenfelserstrasse",
        "amenity": "restaurant",
        "name": "Restaurant Sonne"
      }
    },
    {
      "type": "node",
      "id": 1384432595,
      "lat": 47.5000332,
      "lon": 9.4507027,
      "tags": {
        "amenity": "cafe"
      }
    },
    {
      "type": "node",
      "id": 1384432670,
      "lat": 47.4938935,
      "lon": 9.4640359,
      "tags": {
        "amenity": "restaurant"
      }
    },
    {
      "type": "node",
      "id": 1416362764,
      "lat": 47.4270216,
      "lon": 8.9344029,
      "tags": {
        "addr:city": "Dussnang",
        "addr:housenumber": "2",
        "addr:postcode": "8374",
        "addr:street": "Mühlestrasse",
        "amenity": "restaurant",
        "cuisine": "regional",
        "name": "Restaurant Mühle Schurten",
        "opening_hours": "We-Su 09:00-24:00",
        "phone": "+41 71 977 13 70",
        "website": "http://muehleschurten.ch/"
      }
    },
    {
      "type": "node",
      "id": 1423373833,
      "lat": 47.5730445,
      "lon": 8.9459558,
      "tags": {
        "amenity": "restaurant",
        "name": "Landgasthof Schwanen",
        "opening_hours": "Mo-Sa 08:00-23:00; Su \"Für Anlässe\"",
        "website": "https://www.landgasthof-schwanen.ch/",
        "wheelchair": "no"
      }
    },
    {
      "type": "node",
      "id": 1435352582,
      "lat": 47.6722714,
      "lon": 9.0845628,
      "tags": {
        "addr:city": "Ermatingen",
        "addr:country": "CH",
        "addr:housenumber": "25",
        "addr:postcode": "8272",
        "addr:street": "Schiffländestrasse",
        "amenity": "restaurant",
        "cuisine": "regional",
        "name": "Hecht"
      }
    },
    {
      "type": "node",
      "id": 1435360099,
      "lat": 47.6739041,
      "lon": 9.0848525,
      "tags": {
        "amenity": "restaurant",
        "cuisine": "fish",
        "name": "Krone",
        "wheelchair": "limited"
      }
    },
    {
      "type": "node",
      "id": 1435465480,
      "lat": 47.6616773,
      "lon": 9.1091271,
      "tags": {
        "amenity": "restaurant",
        "cuisine": "regional",
        "name": "Ochsen",
        "wheelchair": "no"
      }
    },
    {
      "type": "node",
      "id": 1435641118,
      "lat": 47.6353957,
      "lon": 9.0765109,
      "tags": {
        "amenity": "restaurant",
        "changing_table": "no",
        "diet:vegan": "no",
        "diet:vegetarian": "yes",
        "level": "0",
        "name": "Restaurant Alpenblick",
        "opening_hours": "Mo-Fr 09:00-14:00,16:00-21:00+; Sa,Su off",
        "opening_hours:kitchen": "11:30-14:00,17:30+",
        "outdoor_seating": "yes",
        "smoking": "outside",
        "toilets:access": "customers",
        "toilets:wheelchair": "no",
        "wheelchair": "no"
      }
    },
    {
      "type": "node",
      "id": 1435670345,
      "lat": 47.6552805,
      "lon": 9.1341166,
      "tags": {
        "amenity": "restaurant",
        "check_date": "2024-11-15",
        "cuisine": "regional",
        "name": "Steinbock"
      }
    },
    {
      "type": "node",
      "id": 1435674077,
      "lat": 47.6595796,
      "lon": 9.1330627,
      "tags": {
        "amenity": "fast_food",
        "cuisine": "kebab",
        "name": "Host Pizza"
      }
    },
    {
      "type": "node",
      "id": 1435963809,
      "lat": 47.6646813,
      "lon": 9.133851,
      "tags": {
        "addr:city": "Gottlieben",
        "addr:country": "CH",
        "addr:housenumber": "11",
        "addr:postcode": "8274",
        "addr:street": "Seestrasse",
        "amenity": "restaurant",
        "contact:email": "info@gottlieber-hotel-krone.ch",
        "contact:phone": "+41 71 666 80 60",
        "contact:website": "http://www.gottlieber-hotel-krone.ch",
        "name": "Krone",
        "opening_hours": "May 01-Sep 30 We-Mo 09:00-24:00; Oct 01-Apr 30 We-Su 12:00-14:30, 18:00-23:00",
        "outdoor_seating": "yes",
        "source": "website",
        "wheelchair": "no"
      }
    },
    {
      "type": "node",
      "id": 1436165734,
      "lat": 47.6454737,
      "lon": 9.1703644,
      "tags": {
        "amenity": "restaurant",
        "cuisine": "kebab",
        "name": "Sofra"
      }
    },
    {
      "type": "node",
      "id": 1469177190,
      "lat": 47.5697362,
      "lon": 9.1055462,
      "tags": {
        "addr:city": "Weinfelden",
        "addr:country": "CH",
        "addr:housenumber": "57",
        "addr:postcode": "8570",
        "addr:street": "Frauenfelderstrasse",
        "amenity": "restaurant",
        "contact:phone": "+41 71 620 25 33",
        "contact:website": "www.trattoriastorchen.ch",
        "cuisine": "italian",
        "name": "Storchen",
        "opening_hours": "Tu-Sa 09:00-24:00",
        "smoking": "no",
        "wheelchair": "limited"
      }
    },
    {
      "type": "node",
      "id": 1486121727,
      "lat": 47.5669439,
      "lon": 9.1104133,
      "tags": {
        "amenity": "cafe",
        "indoor_seating": "yes",
        "name": "Mohn Bäckerei Café Konditorei Confiserie",
        "opening_hours": "Mo-Fr 07:00-18:30; Sa 07:00-17:00; Su 08:00-16:00",
        "operator": "Bäckerei-Konditorei Mohn",
        "outdoor_seating": "yes",
        "website": "https://www.beckmohn.ch/cafe-grande-truffe-lokalitaet.html"
      }
    },
    {
      "type": "node",
      "id": 1492836155,
      "lat": 47.5113816,
      "lon": 9.4305993,
      "tags": {
        "amenity": "restaurant",
        "branch": "Arbon Novaseta",
        "brand": "Coop Restaurant",
        "brand:wikidata": "Q432564",
        "brand:wikipedia": "de:Coop (Schweiz)",
        "cuisine": "german",
        "name": "Coop Restaurant",
        "wheelchair": "yes"
      }
    },
    {
      "type": "node",
      "id": 1492836173,
      "lat": 47.5120782,
      "lon": 9.4313156,
      "tags": {
        "amenity": "restaurant",
        "brewery": "Schützengarten",
        "cuisine": "pizza",
        "name": "Harmonie",
        "website": "http://www.pizzeria-harmonie-arbon.ch/",
        "wheelchair": "yes"
      }
    },
    {
      "type": "node",
      "id": 1500974690,
      "lat": 47.6647605,
      "lon": 8.9813477,
      "tags": {
        "addr:city": "Steckborn",
        "addr:country": "CH",
        "addr:housenumber": "5",
        "addr:postcode": "8266",
        "addr:street": "Bahnhofstrasse",
        "amenity": "restaurant",
        "name": "Bahnhof",
        "opening_hours": "Mo-Sa 06:00-24:00, Su 07:00-24:00",
        "phone": "+41 52 761 11 15",
        "smoking": "yes",
        "wheelchair": "no"
      }
    },
    {
      "type": "node",
      "id": 1501071515,
      "lat": 47.6080947,
      "lon": 9.2926637,
      "tags": {
        "amenity": "restaurant",
        "name": "Bahnhof"
      }
    },
    {
      "type": "node",
      "id": 1501071562,
      "lat": 47.6074462,
      "lon": 9.292426,
      "tags": {
        "amenity": "restaurant",
        "name": "Eisenbahn"
      }
    },
    {
      "type": "node",
      "id": 1532756863,
      "lat": 47.5540815,
      "lon": 8.895149,
      "tags": {
        "amenity": "restaurant",
        "name": "Gasthof zum goldenen Kreuz",
        "opening_hours": "Mo-Sa 11:30-14:00,18:00-22:00; Su 11:30-15:00,17:00-21:00",
        "outdoor_seating": "yes",
        "tourism": "hotel",
        "website": "https://www.goldeneskreuz.ch/"
      }
    },
    {
      "type": "node",
      "id": 1563533956,
      "lat": 47.5000042,
      "lon": 9.3954894,
      "tags": {
        "amenity": "restaurant",
        "fixme": "not existing anymore? survey required",
        "name": "Ochsen",
        "wheelchair": "no"
      }
    },
    {
      "type": "node",
      "id": 1563533957,
      "lat": 47.5002048,
      "lon": 9.3957713,
      "tags": {
        "amenity": "restaurant",
        "cuisine": "mexican",
        "name": "Tres Amigos",
        "wheelchair": "no"
      }
    },
    {
      "type": "node",
      "id": 1564845063,
      "lat": 47.5193716,
      "lon": 9.4338974,
      "tags": {
        "addr:city": "Arbon",
        "addr:housenumber": "14",
        "addr:postcode": "9320",
        "addr:street": "Wassergasse",
        "amenity": "restaurant",
        "brewery": "Feldschlösschen",
        "name": "Panorama Restaurant zum Seepark",
        "wheelchair": "limited"
      }
    },
    {
      "type": "node",
      "id": 1567061991,
      "lat": 47.6556312,
      "lon": 9.131908,
      "tags": {
        "addr:city": "Tägerwilen",
        "addr:country": "CH",
        "addr:housenumber": "67",
        "addr:postcode": "8274",
        "addr:street": "Hauptstrasse",
        "amenity": "cafe",
        "check_date": "2024-11-15",
        "cuisine": "ice_cream",
        "diet:dairy_free": "yes",
        "diet:lacto_vegetarian": "yes",
        "diet:vegetarian": "yes",
        "name": "Walz Bäckerei",
        "opening_hours": "Mo-Fr 06:00-18:30; Sa,Su, PH 06:30-17:00",
        "outdoor_seating": "yes",
        "smoking": "outside",
        "takeaway": "yes",
        "wheelchair": "yes"
      }
    },
    {
      "type": "node",
      "id": 1599295276,
      "lat": 47.6495669,
      "lon": 9.1867486,
      "tags": {
        "addr:city": "Kreuzlingen",
        "addr:country": "CH",
        "addr:housenumber": "5",
        "addr:postcode": "8280",
        "addr:street": "Seeweg",
        "amenity": "restaurant",
        "name": "Seeburg Restaurant",
        "opening_hours": "Jul,Aug: Tu-Su 10:00+; Sep-Jun: We-Su 10:00+; PH 10:00+",
        "phone": "+41 71 688 47 75",
        "website": "https://schloss-seeburg.ch/",
        "wheelchair": "limited"
      }
    },
    {
      "type": "node",
      "id": 1632790252,
      "lat": 47.4776126,
      "lon": 8.8980953,
      "tags": {
        "amenity": "restaurant",
        "check_date": "2023-08-14",
        "name": "Hirschen",
        "wheelchair": "no"
      }
    },
    {
      "type": "node",
      "id": 1633090071,
      "lat": 47.6852624,
      "lon": 8.6747052,
      "tags": {
        "amenity": "restaurant",
        "name": "Paradies",
        "opening_hours": "closed",
        "website": "https://www.paradiesli.ch/",
        "wheelchair": "yes"
      }
    },
    {
      "type": "node",
      "id": 1638782097,
      "lat": 47.5556098,
      "lon": 8.8969503,
      "tags": {
        "alt_name": "Scharfes Eck",
        "amenity": "restaurant",
        "name": "Scharfes Eck",
        "opening_hours": "Mo-Th 08:00-24:00;Fr-Sa 08:00-01:00;Nov 1-Feb 28: Su 10:00-23:00",
        "website": "https://www.scharfeseck.ch/",
        "wheelchair": "no"
      }
    },
    {
      "type": "node",
      "id": 1641555075,
      "lat": 47.5157682,
      "lon": 9.4362599,
      "tags": {
        "addr:city": "Arbon",
        "addr:country": "CH",
        "addr:housenumber": "2",
        "addr:postcode": "9320",
        "addr:street": "Hauptstrasse",
        "amenity": "fast_food",
        "cuisine": "kebab",
        "name": "Dido"
      }
    },
    {
      "type": "node",
      "id": 1641555077,
      "lat": 47.5156158,
      "lon": 9.4359752,
      "tags": {
        "addr:city": "Arbon",
        "addr:country": "CH",
        "addr:housenumber": "7",
        "addr:postcode": "9320",
        "addr:street": "Hauptstrasse",
        "amenity": "restaurant",
        "brewery": "Schützengarten",
        "cuisine": "italian",
        "email": "info@hostariaarbon.ch",
        "name": "Hostaria",
        "phone": "044 594 55 66",
        "website": "http://hostariaarbon.ch",
        "wheelchair": "no"
      }
    },
    {
      "type": "node",
      "id": 1647881797,
      "lat": 47.5781166,
      "lon": 8.939776,
      "tags": {
        "addr:city": "Felben-Wellhausen",
        "addr:housenumber": "27",
        "addr:postcode": "8552",
        "addr:street": "Hauptstrasse",
        "amenity": "restaurant",
        "cuisine": "regional",
        "microbrewery": "no",
        "name": "Frohsinn",
        "opening_hours": "Tu-Sa 09:00-22:00+",
        "phone": "+41 52 765 33 66",
        "smoking": "no",
        "website": "https://pferdemetzgerei-michel.ch/Restaurant-Frohsinn.php",
        "wheelchair": "no"
      }
    },
    {
      "type": "node",
      "id": 1668439907,
      "lat": 47.495865,
      "lon": 9.4634638,
      "tags": {
        "addr:city": "Horn",
        "addr:country": "CH",
        "addr:housenumber": "68",
        "addr:postcode": "9326",
        "addr:street": "Seestrasse",
        "amenity": "restaurant",
        "cuisine": "regional",
        "diet:vegan": "no",
        "diet:vegetarian": "yes",
        "name": "Lido",
        "phone": "+4171 841 42 73"
      }
    },
    {
      "type": "node",
      "id": 1695200119,
      "lat": 47.5637897,
      "lon": 8.8866393,
      "tags": {
        "amenity": "restaurant"
      }
    },
    {
      "type": "node",
      "id": 1753874906,
      "lat": 47.5833847,
      "lon": 9.0617663,
      "tags": {
        "addr:city": "Märstetten",
        "addr:country": "CH",
        "addr:housenumber": "3",
        "addr:postcode": "8560",
        "addr:street": "Weinfelderstrasse",
        "amenity": "restaurant",
        "name": "Hilarius",
        "wheelchair": "no"
      }
    },
    {
      "type": "node",
      "id": 1754681455,
      "lat": 47.5686177,
      "lon": 9.382108,
      "tags": {
        "addr:city": "Romanshorn",
        "addr:housenumber": "26",
        "addr:postcode": "8590",
        "addr:street": "Schlossbergstrasse",
        "amenity": "restaurant",
        "cuisine": "regional",
        "name": "Schlosshotel und Restaurant Tribeli",
        "opening_hours": "We-Fr 10:00-14:00,17:00-22:00; Sa-Su 10:00-22:00",
        "phone": "+41 71 466 78 00",
        "stars": "3",
        "tourism": "hotel",
        "website": "https://www.schlossromanshorn.ch/"
      }
    },
    {
      "type": "node",
      "id": 1770741125,
      "lat": 47.5192178,
      "lon": 9.2590082,
      "tags": {
        "amenity": "restaurant",
        "name": "Löwen",
        "opening_hours": "Mo-Fr 08:30-24:00; Sa 08:30-14:00; Su,PH off"
      }
    },
    {
      "type": "node",
      "id": 1780794185,
      "lat": 47.6091877,
      "lon": 9.2610395,
      "tags": {
        "amenity": "cafe",
        "check_date:opening_hours": "2022-08-24",
        "delivery": "yes",
        "level": "0",
        "name": "Kunz",
        "opening_hours": "Mo-Fr 05:30-18:30; Sa 05:30-16:00; Su 07:00-12:00",
        "outdoor_seating": "yes",
        "shop": "bakery",
        "takeaway": "yes",
        "toilets": "yes",
        "website": "https://www.baeckereikunz.ch/",
        "wheelchair": "yes"
      }
    },
    {
      "type": "node",
      "id": 1843121747,
      "lat": 47.5557398,
      "lon": 8.8936078,
      "tags": {
        "amenity": "fast_food",
        "cuisine": "turkish",
        "delivery": "yes",
        "level": "0",
        "name": "Alaturka",
        "opening_hours": "Mo-Th 10:00-23:00; Fr-Sa 10:30-24:00; Su 11:00-22:00",
        "outdoor_seating": "yes",
        "takeaway": "yes",
        "wheelchair": "limited"
      }
    },
    {
      "type": "node",
      "id": 1843122127,
      "lat": 47.5611233,
      "lon": 8.8880796,
      "tags": {
        "amenity": "fast_food",
        "name": "Sonnmatt Imbiss",
        "phone": "+41 52 721 75 75",
        "wheelchair": "no"
      }
    },
    {
      "type": "node",
      "id": 1894550569,
      "lat": 47.616652,
      "lon": 9.0523251,
      "tags": {
        "amenity": "restaurant",
        "cuisine": "regional",
        "name": "Restaurant Sägi"
      }
    },
    {
      "type": "node",
      "id": 1997230018,
      "lat": 47.6226731,
      "lon": 9.2675946,
      "tags": {
        "amenity": "restaurant",
        "cuisine": "regional",
        "name": "Gasthof Krone"
      }
    },
    {
      "type": "node",
      "id": 1997230035,
      "lat": 47.6228451,
      "lon": 9.2688818,
      "tags": {
        "amenity": "fast_food"
      }
    },
    {
      "type": "node",
      "id": 2035693261,
      "lat": 47.4627651,
      "lon": 8.9883691,
      "tags": {
        "addr:city": "Sirnach",
        "addr:housename": "Restaurant Murg",
        "addr:housenumber": "25",
        "addr:postcode": "8370",
        "addr:street": "Lindenstrasse",
        "amenity": "restaurant",
        "cuisine": "regional",
        "indoor_seating": "yes",
        "name": "Murg",
        "opening_hours": "Sa,Su 10:00-19:00; Mo-Fr 09:00-18:00+",
        "outdoor_seating": "yes",
        "source": "Internet survey",
        "wheelchair": "no"
      }
    },
    {
      "type": "node",
      "id": 2046750326,
      "lat": 47.5655699,
      "lon": 9.3760713,
      "tags": {
        "amenity": "cafe",
        "name": "Köppel"
      }
    },
    {
      "type": "node",
      "id": 2047043387,
      "lat": 47.5684517,
      "lon": 9.3839849,
      "tags": {
        "amenity": "restaurant",
        "diet:vegetarian": "yes",
        "indoor_seating": "yes",
        "name": "zur Mole",
        "opening_hours": "We-Su 10:00-19:00",
        "outdoor_seating": "yes",
        "phone": "+41 78 769 30 90",
        "toilets:wheelchair": "yes",
        "website": "https://www.moleromanshorn.ch/",
        "wheelchair": "yes"
      }
    },
    {
      "type": "node",
      "id": 2047043453,
      "lat": 47.5647622,
      "lon": 9.3789715,
      "tags": {
        "amenity": "restaurant",
        "beds": "35",
        "cuisine": "pizza",
        "internet_access": "wlan",
        "name": "Anker",
        "phone": "+41 71 463 17 32",
        "rooms": "20",
        "tourism": "hotel",
        "website": "http://hotelanker-romanshorn.ch"
      }
    },
    {
      "type": "node",
      "id": 2047151082,
      "lat": 47.5653382,
      "lon": 9.3774051,
      "tags": {
        "addr:city": "Romanshorn",
        "addr:country": "CH",
        "addr:housenumber": "30",
        "addr:postcode": "8590",
        "addr:street": "Alleestrasse",
        "amenity": "restaurant",
        "check_date:opening_hours": "2024-07-13",
        "name": "Gerry's Bistro",
        "opening_hours": "Mo-Su 08:30-24:00",
        "outdoor_seating": "yes",
        "takeaway": "yes"
      }
    },
    {
      "type": "node",
      "id": 2052009887,
      "lat": 47.5652643,
      "lon": 9.3793017,
      "tags": {
        "amenity": "restaurant",
        "name": "Brasserie",
        "wheelchair": "yes"
      }
    },
    {
      "type": "node",
      "id": 2052058104,
      "lat": 47.5672659,
      "lon": 9.3790174,
      "tags": {
        "amenity": "restaurant",
        "name": "Poststübli",
        "wheelchair": "no"
      }
    },
    {
      "type": "node",
      "id": 2054459011,
      "lat": 47.5657624,
      "lon": 9.3733798,
      "tags": {
        "addr:city": "Romanshorn",
        "addr:country": "CH",
        "addr:housenumber": "21",
        "addr:postcode": "8590",
        "addr:street": "Bahnhofstrasse",
        "amenity": "restaurant",
        "cuisine": "pizza",
        "name": "Ochsen"
      }
    },
    {
      "type": "node",
      "id": 2054471332,
      "lat": 47.5657045,
      "lon": 9.3720945,
      "tags": {
        "amenity": "fast_food",
        "cuisine": "kebab",
        "name": "Mandoline Grill"
      }
    },
    {
      "type": "node",
      "id": 2055364963,
      "lat": 47.5648158,
      "lon": 9.3775719,
      "tags": {
        "amenity": "fast_food",
        "name": "Legende",
        "opening_hours": "Mo-Th 08:00-22:00, Fr,Sa 08:00-24:00, Su 08:00-22:00"
      }
    },
    {
      "type": "node",
      "id": 2058587318,
      "lat": 47.5238873,
      "lon": 8.9995213,
      "tags": {
        "addr:postcode": "9506",
        "addr:street": "Flugplatzstrasse",
        "amenity": "restaurant",
        "contact:email": "franca.winner@gmail.com",
        "name": "​Franca's Flughafenbeizli",
        "opening_hours": "We-Sa 11:00-21:00; Su 11:00-19:00",
        "phone": "+41 78 615 18 97",
        "website": "https://www.francas-flughafenbeizli.ch/"
      }
    },
    {
      "type": "node",
      "id": 2074768480,
      "lat": 47.5654591,
      "lon": 9.365382,
      "tags": {
        "amenity": "restaurant",
        "name": "Landhaus",
        "name:de": "Landhaus"
      }
    },
    {
      "type": "node",
      "id": 2079033887,
      "lat": 47.6491481,
      "lon": 9.1810871,
      "tags": {
        "amenity": "restaurant",
        "check_date": "2025-04-21",
        "name": "Gasthaus Bahnhof Hafen",
        "phone": "+4171 672 42 58",
        "website": "http://www.chez-hampi.ch"
      }
    },
    {
      "type": "node",
      "id": 2082805096,
      "lat": 47.6475556,
      "lon": 9.1750595,
      "tags": {
        "amenity": "restaurant",
        "indoor_seating": "yes",
        "name": "Weinbar Zum Löwen",
        "outdoor_seating": "yes",
        "wheelchair": "limited"
      }
    },
    {
      "type": "node",
      "id": 2084844693,
      "lat": 47.5552505,
      "lon": 8.8993089,
      "tags": {
        "amenity": "restaurant",
        "name": "Markplatz",
        "opening_hours": "Mo-Fr 08:00-12:00,15:30-22:30; Sa 09:00-12:00,16:00-22:30; Su 09:00-13:00,18:00-22:30; PH closed",
        "wheelchair": "no"
      }
    },
    {
      "type": "node",
      "id": 2084845349,
      "lat": 47.5545269,
      "lon": 8.900972,
      "tags": {
        "amenity": "fast_food",
        "delivery": "Mo-Th 11:00-13:30,17:00-22:00; Fr-Sa 11:00-13:30,17:00-23:00; PH off",
        "level": "0",
        "name": "Tibet Momo",
        "opening_hours": "Mo-Sa 11:00-14:00,17:00-22:00; PH off",
        "takeaway": "yes",
        "website": "https://tibetmomofrauenfel.wixsite.com/homepage"
      }
    },
    {
      "type": "node",
      "id": 2085245655,
      "lat": 47.5547574,
      "lon": 9.1078758,
      "tags": {
        "amenity": "restaurant",
        "name": "Martin's"
      }
    },
    {
      "type": "node",
      "id": 2089741196,
      "lat": 47.5958368,
      "lon": 8.9537607,
      "tags": {
        "amenity": "restaurant",
        "name": "Sonnenhof",
        "wheelchair": "no"
      }
    },
    {
      "type": "node",
      "id": 2089741197,
      "lat": 47.5963109,
      "lon": 8.9572237,
      "tags": {
        "amenity": "restaurant",
        "name": "Krone",
        "wheelchair": "no"
      }
    },
    {
      "type": "node",
      "id": 2091573766,
      "lat": 47.6163019,
      "lon": 8.958896,
      "tags": {
        "amenity": "restaurant",
        "name": "Burgbeizli"
      }
    },
    {
      "type": "node",
      "id": 2091602030,
      "lat": 47.5553491,
      "lon": 8.9902442,
      "tags": {
        "addr:city": "Lustdorf",
        "addr:housenumber": "1",
        "addr:postcode": "8512",
        "addr:street": "Hessenbohl",
        "amenity": "restaurant",
        "name": "Alpenblick"
      }
    },
    {
      "type": "node",
      "id": 2091602675,
      "lat": 47.538653,
      "lon": 9.0023036,
      "tags": {
        "addr:city": "Wetzikon TG",
        "addr:housenumber": "1",
        "addr:postcode": "8512",
        "addr:street": "Wolfikonerstrasse",
        "amenity": "restaurant",
        "name": "Immenberg",
        "website": "http://www.immenberg-restaurant.ch/"
      }
    },
    {
      "type": "node",
      "id": 2102492160,
      "lat": 47.5157926,
      "lon": 9.4361916,
      "tags": {
        "amenity": "fast_food",
        "cuisine": "asian",
        "name": "Asia Go Go"
      }
    },
    {
      "type": "node",
      "id": 2125400694,
      "lat": 47.5670793,
      "lon": 9.2896413,
      "tags": {
        "amenity": "restaurant",
        "name": "Löwen",
        "website": "https://www.loewen-sommeri.ch/"
      }
    },
    {
      "type": "node",
      "id": 2135785536,
      "lat": 47.6654596,
      "lon": 8.9819646,
      "tags": {
        "addr:city": "Steckborn",
        "addr:country": "CH",
        "addr:postcode": "8266",
        "addr:street": "Bahnhofstrasse",
        "amenity": "restaurant",
        "name": "Weingarten",
        "wheelchair": "limited",
        "wheelchair:description": "WC Rollsthulgerecht"
      }
    },
    {
      "type": "node",
      "id": 2157377687,
      "lat": 47.4782563,
      "lon": 8.9959047,
      "tags": {
        "addr:city": "Münchwilen (TG)",
        "addr:housenumber": "1",
        "addr:postcode": "9542",
        "addr:street": "Eschlikonerstrasse",
        "amenity": "fast_food",
        "cuisine": "kebab",
        "indoor_seating": "yes",
        "name": "Alis Kebaphaus",
        "opening_hours": "Mo-Th 11:00-23:00, Fr,Sa 11:00-24:00, Su 11:00-22:00",
        "outdoor_seating": "yes"
      }
    },
    {
      "type": "node",
      "id": 2181032910,
      "lat": 47.5781921,
      "lon": 9.1663604,
      "tags": {
        "addr:city": "Berg TG",
        "addr:country": "CH",
        "addr:housenumber": "41",
        "addr:postcode": "8572",
        "addr:street": "Hauptstrasse",
        "amenity": "restaurant",
        "check_date": "2024-09-16",
        "name": "Frohheim"
      }
    },
    {
      "type": "node",
      "id": 2181035920,
      "lat": 47.5796432,
      "lon": 9.1672589,
      "tags": {
        "addr:city": "Berg TG",
        "addr:country": "CH",
        "addr:housenumber": "48",
        "addr:postcode": "8572",
        "addr:street": "Hauptstrasse",
        "amenity": "restaurant",
        "indoor_seating": "yes",
        "name": "Sonne",
        "outdoor_seating": "yes"
      }
    },
    {
      "type": "node",
      "id": 2181036380,
      "lat": 47.5817294,
      "lon": 9.1745279,
      "tags": {
        "addr:housenumber": "32",
        "addr:postcode": "8572",
        "addr:street": "Bahnhofstrasse",
        "amenity": "restaurant",
        "name": "Gasthaus zum Bahnhof",
        "opening_hours": "Mo,Tu,Fr 08:30-24:00, Sa,Su,PH 11:00-24:00",
        "tourism": "hotel",
        "website": "https://bahnhof-grewe.ch/"
      }
    },
    {
      "type": "node",
      "id": 2192550846,
      "lat": 47.6767017,
      "lon": 8.7813122,
      "tags": {
        "amenity": "restaurant",
        "name": "Läui"
      }
    },
    {
      "type": "node",
      "id": 2238923984,
      "lat": 47.6700029,
      "lon": 9.0855697,
      "tags": {
        "amenity": "cafe",
        "name": "Kiosk Ermatingen",
        "opening_hours": "Mo-Fr 07:00-19:00; Sa,Su 08:00-13:00"
      }
    },
    {
      "type": "node",
      "id": 2268308245,
      "lat": 47.4965148,
      "lon": 8.9534982,
      "tags": {
        "addr:city": "Wängi",
        "addr:housenumber": "1",
        "addr:postcode": "9545",
        "addr:street": "Wilerstrasse",
        "amenity": "restaurant",
        "cuisine": "italian",
        "name": "Schäfli",
        "phone": "+41 52 378 12 39"
      }
    },
    {
      "type": "node",
      "id": 2292229026,
      "lat": 47.6735731,
      "lon": 9.0824533,
      "tags": {
        "addr:city": "Ermatingen",
        "addr:country": "CH",
        "addr:housenumber": "39",
        "addr:postcode": "8272",
        "addr:street": "Untere Seestrasse",
        "amenity": "restaurant",
        "email": "info@seegarten-ermatingen.ch",
        "name": "Restaurant Seegarten",
        "opening_hours": "Tu-Fr 08:30-14:00,17:00-23:59; Sa 08:30-21:00",
        "phone": "+41 71 660 06 21",
        "website": "https://www.seegarten-ermatingen.ch/",
        "wheelchair": "no"
      }
    },
    {
      "type": "node",
      "id": 2338404706,
      "lat": 47.647821,
      "lon": 9.1742196,
      "tags": {
        "amenity": "cafe",
        "name": "City-Cafe Elmer",
        "wheelchair": "limited"
      }
    },
    {
      "type": "node",
      "id": 2341867814,
      "lat": 47.5137862,
      "lon": 9.4379322,
      "tags": {
        "amenity": "fast_food",
        "name": "Hafenkiosk",
        "wheelchair": "limited"
      }
    },
    {
      "type": "node",
      "id": 2366684290,
      "lat": 47.4634005,
      "lon": 9.021294,
      "tags": {
        "amenity": "restaurant",
        "cuisine": "regional",
        "name": "Hirschen"
      }
    },
    {
      "type": "node",
      "id": 2366691322,
      "lat": 47.4623157,
      "lon": 9.0000101,
      "tags": {
        "addr:city": "Sirnach",
        "addr:housenumber": "14",
        "addr:postcode": "8370",
        "addr:street": "Wilerstrasse",
        "amenity": "restaurant",
        "changing_table": "no",
        "email": "info@avola.ch",
        "indoor_seating": "yes",
        "name": "Avola",
        "opening_hours": "Mo 08:00-22:00; We-Su 08:00-22:00",
        "outdoor_seating": "yes",
        "phone": "+41 71 966 12 90",
        "toilets": "yes",
        "toilets:wheelchair": "no",
        "wheelchair": "limited"
      }
    },
    {
      "type": "node",
      "id": 2366703477,
      "lat": 47.4620463,
      "lon": 8.999768,
      "tags": {
        "addr:city": "Sirnach",
        "addr:housename": "Wilerstrasse",
        "addr:housenumber": "12",
        "addr:postcode": "8370",
        "addr:street": "Wilerstrasse",
        "amenity": "restaurant",
        "indoor_seating": "yes",
        "name": "Post",
        "opening_hours": "Mo-Fr 07:30-12:00,13:45-18:00,08:00-11:00",
        "outdoor_seating": "yes",
        "wheelchair": "no"
      }
    },
    {
      "type": "node",
      "id": 2366734527,
      "lat": 47.4619978,
      "lon": 8.9967454,
      "tags": {
        "addr:city": "Sirnach",
        "addr:housename": "Gasthof Löwen",
        "addr:housenumber": "1",
        "addr:postcode": "8370",
        "addr:street": "Kirchplatz",
        "amenity": "restaurant",
        "cuisine": "regional;turkish",
        "indoor_seating": "yes",
        "name": "Löwen",
        "opening_hours": "Mo-Sa 11:00-14:00,17:00-22:00",
        "outdoor_seating": "yes",
        "phone": "+41 71 966 18 66",
        "tourism": "hotel",
        "website": "http://www.loewen-sirnach.ch",
        "wheelchair": "no"
      }
    },
    {
      "type": "node",
      "id": 2366743621,
      "lat": 47.462915,
      "lon": 8.9938786,
      "tags": {
        "addr:city": "Sirnach",
        "addr:housename": "Restaurant Breite",
        "addr:housenumber": "17",
        "addr:postcode": "8370",
        "addr:street": "Winterthurerstrasse",
        "amenity": "restaurant",
        "changing_table": "no",
        "indoor_seating": "yes",
        "name": "Restazrant Breite",
        "opening_hours": "Mo-Sa 08:00-12:00",
        "outdoor_seating": "yes",
        "toilets": "yes",
        "toilets:wheelchair": "no",
        "wheelchair": "limited"
      }
    },
    {
      "type": "node",
      "id": 2366810664,
      "lat": 47.4602155,
      "lon": 8.9948873,
      "tags": {
        "addr:city": "Sirnach",
        "addr:housename": "Restaurant Heuboden",
        "addr:housenumber": "26",
        "addr:postcode": "8370",
        "addr:street": "Fischingerstrasse",
        "amenity": "restaurant",
        "cuisine": "regional",
        "indoor_seating": "yes",
        "name": "Heubode",
        "opening_hours": "Tu-Sa 11:00-14:00,16:30-23:30",
        "outdoor_seating": "yes",
        "smoking": "isolated",
        "takeaway": "no",
        "wheelchair": "yes"
      }
    },
    {
      "type": "node",
      "id": 2366815545,
      "lat": 47.4475823,
      "lon": 8.9821801,
      "tags": {
        "addr:city": "Wiezikon b. Sirnach",
        "addr:housenumber": "105",
        "addr:postcode": "8372",
        "addr:street": "Fischingerstrasse",
        "amenity": "restaurant",
        "cuisine": "regional",
        "name": "Restaurant Sonne",
        "opening_hours": "Tu-Su 08:30-23:00",
        "phone": "+41 71 966 12 15"
      }
    },
    {
      "type": "node",
      "id": 2366974486,
      "lat": 47.4571013,
      "lon": 8.9837246,
      "tags": {
        "addr:city": "Sirnach",
        "addr:housename": "Restaurant Säge",
        "addr:housenumber": "12",
        "addr:postcode": "8370",
        "addr:street": "Sägestrasse",
        "amenity": "restaurant",
        "check_date:opening_hours": "2024-01-04",
        "cuisine": "regional",
        "indoor_seating": "yes",
        "name": "Restaurant Säge",
        "opening_hours": "Mo-Th 08:30-21:00; Fr 08:30-23:00",
        "opening_hours:signed": "no",
        "outdoor_seating": "yes",
        "phone": "+41 71 966 12 63",
        "wheelchair": "no"
      }
    },
    {
      "type": "node",
      "id": 2366976118,
      "lat": 47.4495928,
      "lon": 8.9862243,
      "tags": {
        "addr:city": "Wiezikon b. Sirnach",
        "addr:housenumber": "30",
        "addr:postcode": "8372",
        "addr:street": "Dorfstrasse",
        "amenity": "restaurant",
        "cuisine": "pizza",
        "name": "Restaurant Pizzeria Hirschen",
        "phone": "+41 71 966 23 33",
        "website": "https://www.pizzeria-hirschen.ch/"
      }
    },
    {
      "type": "node",
      "id": 2366982931,
      "lat": 47.4498035,
      "lon": 9.0139087,
      "tags": {
        "addr:city": "Busswil TG",
        "addr:housenumber": "58",
        "addr:postcode": "8371",
        "addr:street": "Hauptstrasse",
        "amenity": "restaurant",
        "cuisine": "regional",
        "name": "Sonne",
        "phone": "+41 71 923 40 90"
      }
    },
    {
      "type": "node",
      "id": 2366991608,
      "lat": 47.457283,
      "lon": 9.0174098,
      "tags": {
        "addr:city": "Busswil",
        "addr:housename": "Restaurant Sternen",
        "addr:housenumber": "8",
        "addr:postcode": "8371",
        "addr:street": "Hauptstrasse",
        "amenity": "restaurant",
        "name": "Sternen",
        "opening_hours": "off \"nur nach Vereinbarung\"",
        "phone": "+41 78 788 74 73",
        "website": "http://www.sternenbusswil.ch/"
      }
    },
    {
      "type": "node",
      "id": 2378974594,
      "lat": 47.5624884,
      "lon": 9.0476558,
      "tags": {
        "amenity": "restaurant",
        "name": "Kreuzstrasse"
      }
    },
    {
      "type": "node",
      "id": 2406340749,
      "lat": 47.5160723,
      "lon": 9.3619756,
      "tags": {
        "amenity": "restaurant",
        "name": "Chlösterli",
        "wheelchair": "yes"
      }
    },
    {
      "type": "node",
      "id": 2411044960,
      "lat": 47.6480049,
      "lon": 9.0111466,
      "tags": {
        "amenity": "restaurant",
        "name": "Haidenhaus",
        "website": "https://www.haidenhaus.ch/"
      }
    },
    {
      "type": "node",
      "id": 2411065704,
      "lat": 47.6683105,
      "lon": 8.9817924,
      "tags": {
        "amenity": "cafe",
        "check_date": "2024-09-07",
        "name": "zur Schiffländi",
        "opening_hours": "Tu-Su 09:00-19:00",
        "outdoor_seating": "yes"
      }
    },
    {
      "type": "node",
      "id": 2411065705,
      "lat": 47.6673785,
      "lon": 8.9809234,
      "tags": {
        "amenity": "restaurant"
      }
    },
    {
      "type": "node",
      "id": 2417371708,
      "lat": 47.4300691,
      "lon": 8.9635126,
      "tags": {
        "amenity": "restaurant",
        "cuisine": "regional",
        "name": "Tannzapfe",
        "phone": "+41 71 978 63 63",
        "website": "https://www.rehaklinik-dussnang.ch/gastronomie/"
      }
    },
    {
      "type": "node",
      "id": 2417617306,
      "lat": 47.564086,
      "lon": 8.9088336,
      "tags": {
        "amenity": "fast_food",
        "brand": "McDonald's",
        "brand:wikidata": "Q38076",
        "brand:wikipedia": "en:McDonald's",
        "cuisine": "burger",
        "name": "McDonald's",
        "takeaway": "yes",
        "wheelchair": "yes"
      }
    },
    {
      "type": "node",
      "id": 2510630543,
      "lat": 47.5558358,
      "lon": 8.8748593,
      "tags": {
        "access": "private",
        "amenity": "restaurant",
        "name": "Kantine",
        "operator": "Zuckerfabrik Frauenfeld",
        "private": "employees"
      }
    },
    {
      "type": "node",
      "id": 2565662614,
      "lat": 47.6401196,
      "lon": 9.1940089,
      "tags": {
        "addr:city": "Kreuzlingen",
        "addr:country": "CH",
        "addr:housenumber": "72",
        "addr:postcode": "8280",
        "addr:street": "Romanshornerstrasse",
        "amenity": "restaurant",
        "capacity": "50-100",
        "cuisine": "international",
        "name": "Irish Pub Kreuzlingen",
        "website": "http://irishpub-hoernli.com",
        "wheelchair": "no"
      }
    },
    {
      "type": "node",
      "id": 2571855346,
      "lat": 47.5630098,
      "lon": 8.9081095,
      "tags": {
        "addr:city": "Frauenfeld",
        "addr:housenumber": "288",
        "addr:postcode": "8500",
        "addr:street": "Zürcherstrasse",
        "alt_name": "Burger King Frauenfeld",
        "amenity": "fast_food",
        "branch": "Frauenfeld",
        "brand": "Burger King",
        "brand:wikidata": "Q177054",
        "brand:wikipedia": "de:Burger King",
        "cuisine": "burger",
        "drive_through": "yes",
        "name": "Burger King",
        "takeaway": "yes",
        "website": "https://de.burger-king.ch/kingfinder/19753?id=1534"
      }
    },
    {
      "type": "node",
      "id": 2572366567,
      "lat": 47.6443846,
      "lon": 9.1865985,
      "tags": {
        "addr:city": "Kreuzlingen",
        "addr:country": "CH",
        "addr:housenumber": "23/25",
        "addr:postcode": "8280",
        "addr:street": "Weinstrasse",
        "alt_name": "Chickeria Kreuzlingen",
        "amenity": "fast_food",
        "branch": "Kreuzlingen",
        "brand": "Burger King",
        "brand:wikidata": "Q177054",
        "brand:wikipedia": "en:Burger King",
        "check_date": "2025-04-21",
        "cuisine": "burger",
        "internet_access": "wlan",
        "name": "Burger King",
        "operator": "BKCH Services",
        "takeaway": "yes",
        "wheelchair": "yes"
      }
    },
    {
      "type": "node",
      "id": 2613740362,
      "lat": 47.5679808,
      "lon": 9.0935804,
      "tags": {
        "amenity": "fast_food",
        "brand": "McDonald's",
        "brand:wikidata": "Q38076",
        "brand:wikipedia": "en:McDonald's",
        "cuisine": "burger",
        "name": "McDonald's",
        "opening_hours": "Su-Th 08:00-24:00, Fr,Sa 08:00-01:00",
        "takeaway": "yes"
      }
    },
    {
      "type": "node",
      "id": 2628582219,
      "lat": 47.585268,
      "lon": 9.3424996,
      "tags": {
        "amenity": "restaurant",
        "name": "Uttwiler Stübli",
        "toilets:wheelchair": "no",
        "wheelchair": "limited",
        "wikidata": "Q101537455"
      }
    },
    {
      "type": "node",
      "id": 2630423888,
      "lat": 47.6302166,
      "lon": 9.2261374,
      "tags": {
        "addr:city": "Scherzingen",
        "addr:housenumber": "1",
        "addr:postcode": "8596",
        "addr:street": "Dorfstrasse",
        "amenity": "restaurant",
        "cuisine": "asian",
        "name": "Lai Thai"
      }
    },
    {
      "type": "node",
      "id": 2630435692,
      "lat": 47.6303538,
      "lon": 9.2263401,
      "tags": {
        "amenity": "restaurant",
        "name": "Bäckerstübli Bistro Musikbar"
      }
    },
    {
      "type": "node",
      "id": 2639842910,
      "lat": 47.5569332,
      "lon": 8.8964585,
      "tags": {
        "addr:city": "Frauenfeld",
        "addr:housenumber": "70-72",
        "addr:postcode": "8500",
        "addr:street": "Bahnhofplatz",
        "alt_name": "Migros Restaurant Frauenfeld",
        "amenity": "restaurant",
        "branch": "Frauenfeld Passage",
        "brand": "Migros Restaurant",
        "brand:wikidata": "Q680727",
        "cuisine": "international",
        "level": "1",
        "name": "Migros Restaurant",
        "operator": "Genossenschaft Migros Ostschweiz",
        "website": "https://filialen.migros.ch/de/migros-restaurant-frauenfeld-passage",
        "wheelchair": "yes"
      }
    },
    {
      "type": "node",
      "id": 2639842914,
      "lat": 47.556964,
      "lon": 8.8965216,
      "tags": {
        "addr:city": "Frauenfeld",
        "addr:housenumber": "70-72",
        "addr:postcode": "8500",
        "addr:street": "Bahnhofplatz",
        "alt_name": "Migros Take-Away Frauenfeld",
        "amenity": "fast_food",
        "branch": "Frauenfeld Passage",
        "level": "0",
        "name": "Migros Take-Away",
        "operator": "Genossenschaft Migros Ostschweiz",
        "takeaway": "yes",
        "website": "https://filialen.migros.ch/de/take-away-frauenfeld-passage",
        "wheelchair": "yes"
      }
    },
    {
      "type": "node",
      "id": 2639987735,
      "lat": 47.5454829,
      "lon": 8.8420132,
      "tags": {
        "addr:city": "Islikon",
        "addr:housenumber": "28",
        "addr:postcode": "8546",
        "addr:street": "Hauptstrasse",
        "amenity": "restaurant",
        "cuisine": "regional",
        "name": "Landgasthof Löwen",
        "phone": "+41 52 375 11 06",
        "website": "http://www.loewen-islikon.ch/"
      }
    },
    {
      "type": "node",
      "id": 2641375163,
      "lat": 47.6656001,
      "lon": 8.7684321,
      "tags": {
        "amenity": "restaurant",
        "name": "Restaurant Bienengarten",
        "opening_hours": "We-Su 09:00-23:00"
      }
    },
    {
      "type": "node",
      "id": 2641375205,
      "lat": 47.6652352,
      "lon": 8.7695935,
      "tags": {
        "amenity": "restaurant",
        "cuisine": "thai",
        "name": "Restaurant Ban Thai",
        "source": "www.ban-thai.ch/‎"
      }
    },
    {
      "type": "node",
      "id": 2663295307,
      "lat": 47.5556228,
      "lon": 8.8967542,
      "tags": {
        "air_conditioning": "yes",
        "alt_name": "Zum Scharfen Eck",
        "amenity": "fast_food",
        "cuisine": "burger;german",
        "description": "Siehe auch Website https://www.scharfeseck.ch/, Vorbestellung möglich",
        "diet:vegetarian": "yes",
        "name": "Scharfes Eck",
        "opening_hours": "Mo-Th 11:00-23:00; Fr, Sa 11:00-00:00",
        "takeaway": "yes",
        "website": "https://www.scharfeseck.ch/takeaway/",
        "wheelchair": "no"
      }
    },
    {
      "type": "node",
      "id": 2673717226,
      "lat": 47.6516919,
      "lon": 9.1732078,
      "tags": {
        "amenity": "fast_food",
        "cuisine": "noodle;pizza",
        "delivery": "yes",
        "name": "al Centro",
        "opening_hours": "Mo-Fr 11:00-14:00,17:00-23:00;Fr 11:00-14:00,17:00-01:00;Sa 11:00-01:00;Su 11:00-22:00;PH closed",
        "outdoor_seating": "yes",
        "takeaway": "yes",
        "wheelchair": "no"
      }
    },
    {
      "type": "node",
      "id": 2681232695,
      "lat": 47.6736023,
      "lon": 9.0528204,
      "tags": {
        "addr:city": "Mannenbach",
        "addr:country": "CH",
        "addr:housenumber": "21",
        "addr:postcode": "8268",
        "addr:street": "Hauptstrasse",
        "amenity": "restaurant",
        "cuisine": "pizza;italian",
        "internet_access": "yes",
        "name": "Pizzeria Lago Mio",
        "opening_hours": "We-Su 09:00-23:00",
        "phone": "+41 55 242 10 00",
        "smoking": "outside",
        "website": "https://pizzerialagomio.ch",
        "wheelchair": "no"
      }
    },
    {
      "type": "node",
      "id": 2789006752,
      "lat": 47.5198236,
      "lon": 8.934288,
      "tags": {
        "amenity": "restaurant",
        "name": "Landgasthof Ochsen"
      }
    },
    {
      "type": "node",
      "id": 2806826589,
      "lat": 47.5785572,
      "lon": 8.9803358,
      "tags": {
        "amenity": "restaurant",
        "name": "Restaurant Waage"
      }
    },
    {
      "type": "node",
      "id": 2808612055,
      "lat": 47.5598811,
      "lon": 9.3228796,
      "tags": {
        "addr:city": "Hefenhofen",
        "addr:postcode": "8580",
        "addr:street": "Chressibuech",
        "amenity": "restaurant",
        "capacity": "100",
        "cuisine": "regional",
        "name": "Buschenschenke Chressibuech",
        "opening_hours": "We-Th,Sa 14:00-24:00 open \"Grillen bis 18:00 Uhr\"; Su,PH 10:00-20:00 open \"Grillen bis 18:00 Uhr\"",
        "smoking": "outside"
      }
    },
    {
      "type": "node",
      "id": 2818886223,
      "lat": 47.5935445,
      "lon": 9.0695532,
      "tags": {
        "amenity": "restaurant",
        "name": "Rössli"
      }
    },
    {
      "type": "node",
      "id": 2824308533,
      "lat": 47.550408,
      "lon": 9.3024181,
      "tags": {
        "amenity": "fast_food",
        "cuisine": "kebab;pizza",
        "name": "Amri Kebab Pizza"
      }
    },
    {
      "type": "node",
      "id": 2824308537,
      "lat": 47.5385507,
      "lon": 9.185466,
      "tags": {
        "amenity": "restaurant",
        "name": "Helvetia"
      }
    },
    {
      "type": "node",
      "id": 2824315740,
      "lat": 47.5490895,
      "lon": 9.1499139,
      "tags": {
        "amenity": "restaurant",
        "name": "Stella Pizza-Kurier",
        "phone": "+41 71 630 01 48",
        "website": "www.pizzastella.ch"
      }
    },
    {
      "type": "node",
      "id": 2860536340,
      "lat": 47.6122724,
      "lon": 9.2940253,
      "tags": {
        "amenity": "restaurant",
        "name": "Gasthaus Schiff",
        "source": "survey"
      }
    },
    {
      "type": "node",
      "id": 2863554948,
      "lat": 47.4665241,
      "lon": 9.0050815,
      "tags": {
        "addr:city": "Sirnach",
        "addr:housenumber": "27",
        "addr:postcode": "8370",
        "addr:street": "Untermattstrasse",
        "amenity": "cafe",
        "cuisine": "coffee_shop",
        "internet_access": "wlan",
        "name": "Orchideen Amsler",
        "opening_hours": "Mo 13:00-18:30; Tu-Fr 09:00-18:30; Sa 09:00-16:00",
        "smoking": "outside"
      }
    },
    {
      "type": "node",
      "id": 2865124010,
      "lat": 47.6335166,
      "lon": 9.0425121,
      "tags": {
        "amenity": "restaurant",
        "name": "Central"
      }
    },
    {
      "type": "node",
      "id": 2865124020,
      "lat": 47.6325297,
      "lon": 9.042654,
      "tags": {
        "amenity": "restaurant",
        "name": "Hopp dä Bäsa, Beiz - Kafi"
      }
    },
    {
      "type": "node",
      "id": 2865126075,
      "lat": 47.6161253,
      "lon": 9.0642397,
      "tags": {
        "amenity": "restaurant",
        "name": "Schäfli",
        "wheelchair": "limited"
      }
    },
    {
      "type": "node",
      "id": 2867196693,
      "lat": 47.6734295,
      "lon": 9.088103,
      "tags": {
        "addr:city": "Ermatingen",
        "addr:country": "CH",
        "addr:housename": "Schiff",
        "addr:housenumber": "21",
        "addr:postcode": "8272",
        "addr:street": "Schiffgasse",
        "air_conditioning": "no",
        "amenity": "restaurant",
        "indoor_seating": "yes",
        "name": "Schiff",
        "opening_hours": "Th-Sa 14:00-23:00; Su 13:00-20:00",
        "outdoor_seating": "yes",
        "phone": "+41 71 664 30 27",
        "smoking": "outside",
        "wheelchair": "no"
      }
    },
    {
      "type": "node",
      "id": 2888195228,
      "lat": 47.6328442,
      "lon": 8.9720882,
      "tags": {
        "addr:housenumber": "32",
        "addr:street": "Hauptstrasse",
        "amenity": "restaurant",
        "cuisine": "pizza",
        "name": "Don Camillo",
        "tourism": "hotel",
        "website": "https://www.doncamillo-pizzeria.ch/"
      }
    },
    {
      "type": "node",
      "id": 2888195232,
      "lat": 47.6180835,
      "lon": 8.954157,
      "tags": {
        "addr:city": "Dettighofen",
        "addr:housenumber": "111",
        "addr:postcode": "8505",
        "addr:street": "Steckbornstrasse",
        "amenity": "restaurant",
        "name": "Linde",
        "opening_hours": "Tu-Fr 08:30-11:00",
        "phone": "+41 52 765 17 19",
        "tourism": "hotel",
        "website": "https://www.linde-dettighofen.ch/"
      }
    },
    {
      "type": "node",
      "id": 2894091958,
      "lat": 47.5576889,
      "lon": 8.8959159,
      "tags": {
        "amenity": "restaurant",
        "level": "0",
        "name": "Bahnhofbuffet",
        "opening_hours": "PH,Mo-Su 07:00-24:00",
        "wheelchair": "yes"
      }
    },
    {
      "type": "node",
      "id": 2894091961,
      "lat": 47.5578015,
      "lon": 8.8960948,
      "tags": {
        "amenity": "fast_food",
        "cuisine": "burger;kebab;pizza",
        "delivery": "Mo-Su 17:00-24:00",
        "indoor_seating": "yes",
        "level": "0",
        "name": "Gleis 1 Keby",
        "opening_hours": "Mo-Su 11:00-00:30",
        "outdoor_seating": "yes",
        "takeaway": "yes",
        "website": "https://www.keby.ch"
      }
    },
    {
      "type": "node",
      "id": 2894091962,
      "lat": 47.5580346,
      "lon": 8.8964279,
      "tags": {
        "amenity": "fast_food",
        "cuisine": "kebab",
        "level": "0",
        "name": "le petit bazar",
        "outdoor_seating": "yes",
        "strapline": "le goût de l'orient",
        "takeaway": "yes",
        "website": "https://lepetitbazar.ch/",
        "wheelchair": "limited"
      }
    },
    {
      "type": "node",
      "id": 2907715701,
      "lat": 47.6110731,
      "lon": 9.1112406,
      "tags": {
        "amenity": "restaurant",
        "cuisine": "regional",
        "name": "Freihof",
        "website": "http://freihof-lippoldswilen.ch/"
      }
    },
    {
      "type": "node",
      "id": 2928174283,
      "lat": 47.5551891,
      "lon": 8.8950371,
      "tags": {
        "amenity": "restaurant",
        "cuisine": "italian",
        "level": "-1",
        "name": "il tiramisù",
        "opening_hours": "Tu-Sa 11:30-14:00,17:30-23:30; PH off",
        "opening_hours:kitchen": "Tu-Sa 11:30-13:30,17:30-21:30; PH off",
        "outdoor_seating": "yes",
        "reservation": "yes",
        "start_date": "2022-02",
        "website": "https://www.iltiramisu.ch/",
        "wheelchair": "limited"
      }
    },
    {
      "type": "node",
      "id": 2953196591,
      "lat": 47.6467851,
      "lon": 9.1692494,
      "tags": {
        "addr:city": "Kreuzlingen",
        "addr:country": "CH",
        "addr:housenumber": "1",
        "addr:postcode": "8280",
        "addr:street": "Unterseestrasse",
        "amenity": "restaurant",
        "cuisine": "italian",
        "name": "Pizzeria Trattoria Padrino",
        "website": "https://plus.google.com/104085309132399316203/about",
        "wheelchair": "no"
      }
    },
    {
      "type": "node",
      "id": 2968035460,
      "lat": 47.5550507,
      "lon": 8.8984051,
      "tags": {
        "amenity": "fast_food",
        "cuisine": "pasta;pizza",
        "delivery": "yes",
        "indoor_seating": "yes",
        "level": "0",
        "name": "Pizzeria Piccola",
        "opening_hours": "Mo-Sa 11:00-14:00,17:00-22:00; PH closed",
        "outdoor_seating": "yes",
        "takeaway": "yes",
        "website": "https://www.il-primo-gusto.ch/",
        "wheelchair": "limited"
      }
    },
    {
      "type": "node",
      "id": 2979425250,
      "lat": 47.5987434,
      "lon": 8.8376012,
      "tags": {
        "amenity": "restaurant",
        "name": "Wirtschaft zum Hirschen",
        "opening_hours:signed": "no",
        "website": "https://hirschen-buch.ch/"
      }
    },
    {
      "type": "node",
      "id": 2996495428,
      "lat": 47.4853213,
      "lon": 8.9459742,
      "tags": {
        "amenity": "restaurant",
        "name": "Krone"
      }
    },
    {
      "type": "node",
      "id": 2996498815,
      "lat": 47.496506,
      "lon": 8.9519135,
      "tags": {
        "amenity": "restaurant",
        "name": "Sternen"
      }
    },
    {
      "type": "node",
      "id": 3005599184,
      "lat": 47.5636608,
      "lon": 9.0297315,
      "tags": {
        "amenity": "restaurant",
        "name": "Frohsinn"
      }
    },
    {
      "type": "node",
      "id": 3006675281,
      "lat": 47.5535406,
      "lon": 9.0400746,
      "tags": {
        "amenity": "restaurant",
        "name": "Sunneschüür",
        "operator": "Sunneschür GmbH",
        "website": "https://www.sunneschuer.ch/"
      }
    },
    {
      "type": "node",
      "id": 3008783515,
      "lat": 47.5506382,
      "lon": 9.0603986,
      "tags": {
        "addr:housenumber": "27",
        "addr:street": "Unteroppikon",
        "amenity": "restaurant",
        "name": "Gasthaus Ribi",
        "website": "https://www.gasthaus-ribi.ch/"
      }
    },
    {
      "type": "node",
      "id": 3012899115,
      "lat": 47.4961245,
      "lon": 8.9035053,
      "tags": {
        "amenity": "restaurant",
        "cuisine": "regional",
        "microbrewery": "no",
        "name": "Landgasthof Heidelberg",
        "opening_hours": "Mo-Fr 07:00-24:00; Sa 10:00-24:00; Su 10:00-17:00",
        "payment:credit_cards": "yes",
        "payment:debit_cards": "yes",
        "website": "https://www.heidelberg-aadorf.ch/"
      }
    },
    {
      "type": "node",
      "id": 3035701389,
      "lat": 47.5681013,
      "lon": 9.0562785,
      "tags": {
        "amenity": "restaurant",
        "name": "Friedberg"
      }
    },
    {
      "type": "node",
      "id": 3035701391,
      "lat": 47.570342,
      "lon": 9.0586359,
      "tags": {
        "amenity": "restaurant",
        "cuisine": "pizza",
        "name": "Gasthaus Ochsen",
        "website": "https://www.pizzakurier-ochsen.ch/",
        "wheelchair": "limited"
      }
    },
    {
      "type": "node",
      "id": 3036972583,
      "lat": 47.5457653,
      "lon": 8.9620804,
      "tags": {
        "amenity": "fast_food",
        "name": "Nyffi-Beck",
        "operator": "Bäckerei Nyffenegger"
      }
    },
    {
      "type": "node",
      "id": 3058060185,
      "lat": 47.6502545,
      "lon": 9.1726304,
      "tags": {
        "amenity": "restaurant",
        "brand": "Coop Restaurant",
        "brand:wikidata": "Q432564",
        "brand:wikipedia": "de:Coop (Schweiz)",
        "cuisine": "german",
        "level": "1",
        "name": "Coop Restaurant",
        "outdoor_seating": "yes",
        "wheelchair": "yes"
      }
    },
    {
      "type": "node",
      "id": 3084205358,
      "lat": 47.6403601,
      "lon": 9.1843891,
      "tags": {
        "addr:city": "Kreuzlingen",
        "addr:country": "CH",
        "addr:housenumber": "19",
        "addr:postcode": "8280",
        "addr:street": "Eichhornweg",
        "amenity": "restaurant",
        "name": "Burg"
      }
    },
    {
      "type": "node",
      "id": 3088868763,
      "lat": 47.5608486,
      "lon": 8.9021962,
      "tags": {
        "addr:housenumber": "98",
        "addr:postcode": "8500",
        "addr:street": "Bahnhofstrasse",
        "amenity": "restaurant",
        "name": "Pizzeria La Pergola",
        "opening_hours": "Tu-Sa 11:00-14:00,18:00-23:00; Su 17:00-22:00",
        "website": "https://www.pizza-pergola.ch/"
      }
    },
    {
      "type": "node",
      "id": 3099402994,
      "lat": 47.4534494,
      "lon": 8.9378193,
      "tags": {
        "addr:city": "Balterswil",
        "addr:housenumber": "37",
        "addr:postcode": "8362",
        "addr:street": "Hauptstrasse",
        "amenity": "restaurant",
        "name": "Linde",
        "phone": "+41 71 971 17 75"
      }
    },
    {
      "type": "node",
      "id": 3100698053,
      "lat": 47.4871057,
      "lon": 9.0009659,
      "tags": {
        "addr:city": "St. Margarethen TG",
        "addr:housenumber": "3",
        "addr:postcode": "9543",
        "addr:street": "Trungerstrasse",
        "amenity": "restaurant",
        "cuisine": "regional",
        "name": "Frohsinn",
        "opening_hours": "Mo-Fr 08:00-23:00; Sa 09:00-19:00"
      }
    },
    {
      "type": "node",
      "id": 3100847296,
      "lat": 47.5579158,
      "lon": 8.8963163,
      "tags": {
        "addr:city": "Frauenfeld",
        "addr:housenumber": "75",
        "addr:postcode": "8500",
        "addr:street": "Bahnhofplatz",
        "amenity": "fast_food",
        "branch": "Frauenfeld",
        "brand": "Brezelkönig",
        "brand:wikidata": "Q111728604",
        "cuisine": "pretzel",
        "name": "Brezelkönig",
        "opening_hours": "Mo-Su 05:00-21:00",
        "operator": "Valora",
        "shop": "bakery",
        "takeaway": "only",
        "website": "https://brezelkoenig.ch/de/",
        "wheelchair": "limited"
      }
    },
    {
      "type": "node",
      "id": 3123619686,
      "lat": 47.5199073,
      "lon": 8.9337925,
      "tags": {
        "addr:housename": "Rössli",
        "addr:housenumber": "2",
        "addr:postcode": "9548",
        "addr:street": "Frauenfelderstrasse",
        "amenity": "restaurant",
        "name": "Rössli",
        "opening_hours": "Mo-Fr 07:30-00:00"
      }
    },
    {
      "type": "node",
      "id": 3123632436,
      "lat": 47.5192497,
      "lon": 8.9305953,
      "tags": {
        "addr:housenumber": "25",
        "addr:postcode": "9548",
        "addr:street": "Alte Poststrasse",
        "amenity": "restaurant",
        "check_date": "2025-05-25",
        "name": "Mühli"
      }
    },
    {
      "type": "node",
      "id": 3145800058,
      "lat": 47.6582936,
      "lon": 8.9698473,
      "tags": {
        "addr:city": "Steckborn",
        "addr:country": "CH",
        "addr:housenumber": "187",
        "addr:postcode": "8266",
        "addr:street": "Seestrasse",
        "amenity": "restaurant",
        "diet:vegetarian": "yes",
        "email": "lido-steckborn@bluewin.ch",
        "indoor_seating": "yes",
        "name": "Lido",
        "opening_hours": "We-Fr 10:30-14:00,17:00-22:00; Sa 10:30-22:00; Su 10:30-21:00; Mo,Tu off",
        "outdoor_seating": "yes",
        "website": "https://www.lido-steckborn.ch/"
      }
    },
    {
      "type": "node",
      "id": 3166577290,
      "lat": 47.5269631,
      "lon": 9.1808356,
      "tags": {
        "amenity": "restaurant",
        "cuisine": "regional",
        "name": "Sonne Au",
        "opening_hours": "Mo-We 08:00-23:00; Sa-Su 08:00-18:00",
        "outdoor_seating": "yes",
        "website": "https://tel.search.ch/kradolf/auwiesenstrasse-70/restaurant-sonne-au"
      }
    },
    {
      "type": "node",
      "id": 3166746183,
      "lat": 47.5332498,
      "lon": 9.1881556,
      "tags": {
        "amenity": "restaurant",
        "name": "Freihof"
      }
    },
    {
      "type": "node",
      "id": 3166747049,
      "lat": 47.5367367,
      "lon": 9.2050203,
      "tags": {
        "amenity": "restaurant",
        "name": "Zum Brunnestübli"
      }
    },
    {
      "type": "node",
      "id": 3177825166,
      "lat": 47.6073281,
      "lon": 8.870959,
      "tags": {
        "amenity": "restaurant",
        "name": "Eintracht"
      }
    },
    {
      "type": "node",
      "id": 3181591811,
      "lat": 47.5596612,
      "lon": 8.901468,
      "tags": {
        "addr:city": "Frauenfeld",
        "addr:housenumber": "232",
        "addr:postcode": "8500",
        "addr:street": "Zürcherstrasse",
        "amenity": "restaurant",
        "bar": "yes",
        "cuisine": "thai",
        "description": "Authentic thai food with restaurant and take away since 2004. Catering, cooking courses.",
        "diet:meat": "yes",
        "diet:pescetarian": "yes",
        "diet:vegan": "yes",
        "diet:vegetarian": "yes",
        "name": "Sabaai Dee Thai Restaurant und Take Away",
        "opening_hours": "Mo-Th 10:30-19:30; Fr 10:30-20:30; Sa 10:30-18:00",
        "outdoor_seating": "yes",
        "phone": "+41 52 7211500",
        "shop": "deli",
        "takeaway": "yes",
        "website": "https://www.sabaaidee.ch"
      }
    },
    {
      "type": "node",
      "id": 3181591817,
      "lat": 47.5597577,
      "lon": 8.901313,
      "tags": {
        "amenity": "restaurant",
        "check_date": "2024-08-01",
        "cuisine": "kebab;pizza",
        "level": "0",
        "name": "Avesta Kebap & Pizza",
        "outdoor_seating": "yes",
        "takeaway": "yes",
        "wheelchair": "limited"
      }
    },
    {
      "type": "node",
      "id": 3181591818,
      "lat": 47.5631383,
      "lon": 8.9074722,
      "tags": {
        "alt_name": "Dieci Pizzakurier Frauenfeld",
        "amenity": "fast_food",
        "branch": "Frauenfeld",
        "brand": "dieci",
        "cuisine": "pizza",
        "name": "Dieci Pizzakurier",
        "opening_hours": "Mo-Th 11:00-13:30, 17:00-21:30; Fr-Sa 11:00-13:30, 17:00-22:00; Su 16:00-21:30",
        "operator": "Dieci",
        "takeaway": "yes",
        "website": "https://www.dieci.ch/de/pizzakurier-frauenfeld"
      }
    },
    {
      "type": "node",
      "id": 3181627185,
      "lat": 47.5623332,
      "lon": 8.9069245,
      "tags": {
        "amenity": "restaurant",
        "cuisine": "indian",
        "name": "Rai Palace",
        "opening_hours": "Tu-Fr 11:30-13:30,17:00-21:30; Sa-Su 17:00-22:00",
        "outdoor_seating": "yes",
        "reservation": "yes",
        "takeaway": "yes",
        "website": "https://www.raipalace.ch/"
      }
    },
    {
      "type": "node",
      "id": 3181627186,
      "lat": 47.5595888,
      "lon": 8.9014114,
      "tags": {
        "amenity": "restaurant",
        "cuisine": "pizza;italian",
        "name": "Grotto Azzurra",
        "takeaway": "yes",
        "wheelchair": "no"
      }
    },