{
  "version": 0.6,
  "generator": "Overpass API 0.7.62.7 375dc00a",
  "osm3s": {
    "timestamp_osm_base": "2025-07-02T11:20:23Z",
    "timestamp_areas_base": "2025-07-02T08:19:40Z",
    "copyright": "The data included in this document is from www.openstreetmap.org. The data is made available under ODbL."
  },
  "elements": [
    {
      "type": "node",
      "id": 265064180,
      "lat": 46.5062034,
      "lon": 6.6737145,
      "tags": {
        "addr:city": "Paudex",
        "addr:housenumber": "22",
        "addr:postcode": "1094",
        "addr:street": "Route du Simplon",
        "amenity": "restaurant",
        "cuisine": "asian;fusion",
        "delivery": "no",
        "name": "Chez Ho",
        "smoking": "outside"
      }
    },
    {
      "type": "node",
      "id": 265064181,
      "lat": 46.5056429,
      "lon": 6.6726038,
      "tags": {
        "amenity": "restaurant",
        "name": "Café de Paudex",
        "opening_hours": "Mo-Su,PH 09:00-14:30,17:30-23:00"
      }
    },
    {
      "type": "node",
      "id": 265064184,
      "lat": 46.5064876,
      "lon": 6.6716169,
      "tags": {
        "addr:city": "Paudex",
        "addr:housenumber": "8",
        "addr:postcode": "1094",
        "addr:street": "Chemin de la Charrettaz",
        "amenity": "restaurant",
        "cuisine": "pizza",
        "name": "Ristorante La Piazza",
        "opening_hours": "Mo-Fr 11:00-14:00,18:00-22:00; Sa,Su 11:00-14:00,19:00-22:00",
        "phone": "+41 21 791 57 27",
        "website": "https://restolapiazza.ch/"
      }
    },
    {
      "type": "node",
      "id": 265064185,
      "lat": 46.5073433,
      "lon": 6.6713404,
      "tags": {
        "addr:city": "Paudex",
        "addr:housenumber": "6",
        "addr:postcode": "1094",
        "addr:street": "Route du Simplon",
        "amenity": "restaurant",
        "cuisine": "japanese",
        "name": "Hokaido",
        "opening_hours": "Mo-Sa 11:00-14:30,17:30-22:00"
      }
    },
    {
      "type": "node",
      "id": 270588431,
      "lat": 46.4841489,
      "lon": 6.3537012,
      "tags": {
        "amenity": "restaurant",
        "email": "info@signaldebougy.ch",
        "name": "Signal de Bougy",
        "operator": "Migros pour-cent culturel",
        "website": "https://signaldebougy.ch/",
        "wheelchair": "yes"
      }
    },
    {
      "type": "node",
      "id": 274226787,
      "lat": 46.6136953,
      "lon": 6.52777,
      "tags": {
        "amenity": "restaurant",
        "name": "Maison de ville"
      }
    },
    {
      "type": "node",
      "id": 278231564,
      "lat": 46.6094446,
      "lon": 6.5251505,
      "tags": {
        "alt_name": "Le Petit Central",
        "amenity": "cafe",
        "name": "Attimo",
        "wheelchair": "limited"
      }
    },
    {
      "type": "node",
      "id": 278234476,
      "lat": 46.6063757,
      "lon": 6.5227254,
      "tags": {
        "amenity": "restaurant",
        "dog": "yes",
        "name": "Jura-Simplon",
        "opening_hours": "Tu-Sa 10:00-22:30",
        "wheelchair": "limited"
      }
    },
    {
      "type": "node",
      "id": 278234908,
      "lat": 46.6086284,
      "lon": 6.5264652,
      "tags": {
        "amenity": "restaurant",
        "name": "Le Cosy",
        "website": "https://restaurantlecosy.ch/",
        "wheelchair": "yes"
      }
    },
    {
      "type": "node",
      "id": 278247235,
      "lat": 46.597794,
      "lon": 6.5266599,
      "tags": {
        "amenity": "restaurant",
        "name": "Le Casque d'Or"
      }
    },
    {
      "type": "node",
      "id": 278248720,
      "lat": 46.6099734,
      "lon": 6.5251176,
      "tags": {
        "amenity": "restaurant",
        "cuisine": "pizza",
        "wheelchair": "no"
      }
    },
    {
      "type": "node",
      "id": 279310645,
      "lat": 46.5995589,
      "lon": 6.5385291,
      "tags": {
        "amenity": "restaurant",
        "name": "La Treille",
        "opening_hours": "Tu-Sa 11:30-14:30,18:00-23:00"
      }
    },
    {
      "type": "node",
      "id": 281284361,
      "lat": 46.3235156,
      "lon": 7.0744664,
      "tags": {
        "amenity": "restaurant",
        "contact:email": "info@bretaye.ch",
        "contact:phone": "+41 24 495 21 92 ",
        "contact:website": "http://www.bretaye.ch/",
        "name": "Restaurant du Lac de Bretaye"
      }
    },
    {
      "type": "node",
      "id": 281284392,
      "lat": 46.3325214,
      "lon": 7.0832575,
      "tags": {
        "amenity": "restaurant",
        "contact:email": "info@medou.ch",
        "contact:phone": "+41 24 495 21 31",
        "contact:website": "http://www.restaurant-lac-chavonnes.ch/fr/",
        "name": "Restaurant Lac des Chavonnes",
        "tourism": "hotel"
      }
    },
    {
      "type": "node",
      "id": 283192428,
      "lat": 46.6525526,
      "lon": 6.5262545,
      "tags": {
        "amenity": "restaurant"
      }
    },
    {
      "type": "node",
      "id": 286054250,
      "lat": 46.5541953,
      "lon": 6.5766735,
      "tags": {
        "addr:city": "Crissier",
        "addr:housenumber": "1",
        "addr:street": "Rue d'Yverdon",
        "amenity": "restaurant",
        "award:GaultMillau": "19",
        "name": "Hôtel de Ville"
      }
    },
    {
      "type": "node",
      "id": 290287670,
      "lat": 46.519408,
      "lon": 6.5995132,
      "tags": {
        "amenity": "restaurant",
        "cuisine": "italian",
        "name": "Via Vai",
        "outdoor_seating": "yes"
      }
    },
    {
      "type": "node",
      "id": 292172413,
      "lat": 46.5106229,
      "lon": 6.5321645,
      "tags": {
        "amenity": "restaurant",
        "indoor_seating": "no",
        "name": "L'Oued",
        "opening_hours": "Dec-Feb: Su 14:00-sunset open \"uniquement s'il fait beau\"; Mar 01-easter + 38 days: We-Su 11:00-sunset open \"uniquement s'il fait beau\"; easter + 39 days-Aug 31: Mo-Su 11:00-23:00; Sep-Oct: 11:00-sunset open \"uniquement s'il fait beau\"",
        "outdoor_seating": "yes"
      }
    },
    {
      "type": "node",
      "id": 292174058,
      "lat": 46.5185875,
      "lon": 6.4992675,
      "tags": {
        "addr:city": "Morges",
        "addr:country": "CH",
        "addr:housenumber": "2",
        "addr:postcode": "1110",
        "addr:street": "Chemin de la Brume",
        "amenity": "restaurant",
        "name": "Le Cricket",
        "opening_hours": "Mo 07:00-14:00; Tu-Fr 07:00-22:30; Sa 16:00-22:30; Su 09:15-14:00",
        "phone": "+41 (0) 21 803 12 22"
      }
    },
    {
      "type": "node",
      "id": 292174602,
      "lat": 46.5087227,
      "lon": 6.4999728,
      "tags": {
        "addr:city": "Morges",
        "addr:country": "CH",
        "addr:postcode": "1110",
        "addr:street": "Place du Casino",
        "amenity": "restaurant",
        "name": "Le Casino",
        "opening_hours": "Tu-Sa 10:00-24:00, Su 10:00-17:30",
        "phone": "+41 (0) 21 802 62 15",
        "website": "https://www.casinomorges.ch/"
      }
    },
    {
      "type": "node",
      "id": 292175195,
      "lat": 46.5108846,
      "lon": 6.4939929,
      "tags": {
        "air_conditioning": "yes",
        "amenity": "fast_food",
        "brand": "McDonald's",
        "brand:wikidata": "Q38076",
        "brand:wikipedia": "en:McDonald's",
        "cuisine": "burger",
        "diet:vegan": "no",
        "diet:vegetarian": "yes",
        "drive_through": "no",
        "internet_access:fee": "no",
        "name": "McDonald's",
        "opening_hours": "Mo-Th 07:00-00:00; Fr 07:00-02:00; Sa 08:00-01:00; Su 10:00-00:00",
        "operator": "McDonald's",
        "outdoor_seating": "yes",
        "payment:cash": "yes",
        "payment:coins": "yes",
        "payment:contactless": "yes",
        "payment:credit_cards": "yes",
        "payment:debit_cards": "yes",
        "payment:maestro": "yes",
        "payment:mastercard": "yes",
        "payment:notes": "yes",
        "payment:visa": "yes",
        "smoking": "no",
        "takeaway": "yes",
        "toilets:wheelchair": "no",
        "wheelchair": "limited"
      }
    },
    {
      "type": "node",
      "id": 292175964,
      "lat": 46.5175523,
      "lon": 6.629373,
      "tags": {
        "amenity": "fast_food",
        "brand": "McDonald's",
        "brand:wikidata": "Q38076",
        "brand:wikipedia": "en:McDonald's",
        "check_date": "2023-07-23",
        "cuisine": "burger",
        "diet:vegetarian": "yes",
        "name": "McDonald's",
        "opening_hours": "Su-Th 06:00-24:00, Fr,Sa 06:00-02:00",
        "operator": "McDonald's",
        "smoking": "no",
        "takeaway": "yes",
        "wheelchair": "limited"
      }
    },
    {
      "type": "node",
      "id": 292176016,
      "lat": 46.5224653,
      "lon": 6.6306119,
      "tags": {
        "amenity": "fast_food",
        "brand": "McDonald's",
        "brand:wikidata": "Q38076",
        "brand:wikipedia": "en:McDonald's",
        "check_date:opening_hours": "2021-10-04",
        "cuisine": "burger",
        "diet:vegan": "no",
        "diet:vegetarian": "yes",
        "indoor_seating": "yes",
        "name": "McDonald's",
        "opening_hours": "Mo-We 08:00-24:00, Th 08:00-01:00, Fr,Sa 08:00-02:00, Su 10:00-24:00",
        "operator": "McDonald's",
        "outdoor_seating": "yes",
        "payment:twint": "yes",
        "smoking": "no",
        "takeaway": "yes",
        "wheelchair": "yes"
      }
    },
    {
      "type": "node",
      "id": 292178583,
      "lat": 46.4745832,
      "lon": 6.4244968,
      "tags": {
        "amenity": "fast_food",
        "brand": "McDonald's",
        "brand:wikidata": "Q38076",
        "brand:wikipedia": "en:McDonald's",
        "cuisine": "burger",
        "name": "McDonald's",
        "opening_hours": "Mo-Su 10:00-24:00",
        "operator": "McDonald's",
        "smoking": "no",
        "takeaway": "yes"
      }
    },
    {
      "type": "node",
      "id": 292178827,
      "lat": 46.7803247,
      "lon": 6.6365233,
      "tags": {
        "amenity": "fast_food",
        "brand": "McDonald's",
        "brand:wikidata": "Q38076",
        "brand:wikipedia": "en:McDonald's",
        "cuisine": "burger",
        "name": "McDonald's",
        "opening_hours": "Mo-Th 10:00-23:00; Fr,Sa 10:00-24:00; PH,Su 10:00-23:00",
        "operator": "McDonald's",
        "smoking": "no",
        "takeaway": "yes",
        "wheelchair": "yes"
      }
    },
    {
      "type": "node",
      "id": 292179183,
      "lat": 46.7797159,
      "lon": 6.6420844,
      "tags": {
        "amenity": "restaurant",
        "name": "La Grange",
        "opening_hours": "Tu-Su 08:00-23:30",
        "toilets:wheelchair": "yes",
        "website": "https://resto-lagrange.ch/",
        "wheelchair": "yes"
      }
    },
    {
      "type": "node",
      "id": 292179540,
      "lat": 46.7803076,
      "lon": 6.644441,
      "tags": {
        "addr:city": "Yverdon-les-Bains",
        "addr:country": "CH",
        "addr:housenumber": "4",
        "addr:postcode": "1400",
        "addr:street": "Rue des Pêcheurs",
        "amenity": "restaurant",
        "cuisine": "pizza;italian",
        "delivery": "no",
        "name": "Ciao Ciao",
        "outdoor_seating": "yes",
        "phone": "+41 24 534 69 88",
        "takeaway": "yes",
        "toilets:wheelchair": "no",
        "website": "http://ciao-ciao.ch/",
        "wheelchair": "limited"
      }
    },
    {
      "type": "node",
      "id": 292181665,
      "lat": 46.5090779,
      "lon": 6.4960959,
      "tags": {
        "amenity": "restaurant",
        "cuisine": "italian",
        "name": "Il Bivio",
        "old_name": "La Briciola",
        "wheelchair": "no"
      }
    },
    {
      "type": "node",
      "id": 292181666,
      "lat": 46.5087138,
      "lon": 6.4959019,
      "tags": {
        "amenity": "restaurant",
        "cuisine": "japanese",
        "diet:vegetarian": "yes",
        "name": "KikuZen",
        "opening_hours": "Mo-Sa 10:00-14:30,17:00-22:00",
        "phone": "+41 (0) 21 801 18 98",
        "website": "http://www.restaurant-kikuzen.ch",
        "wheelchair": "yes"
      }
    },
    {
      "type": "node",
      "id": 292182324,
      "lat": 46.5297906,
      "lon": 6.5918468,
      "tags": {
        "addr:city": "Renens VD",
        "addr:housenumber": "7",
        "addr:postcode": "1020",
        "addr:street": "Chemin du Chêne",
        "amenity": "restaurant",
        "cuisine": "italian",
        "name": "il Bacio"
      }
    },
    {
      "type": "node",
      "id": 292182410,
      "lat": 46.5357179,
      "lon": 6.5806436,
      "tags": {
        "amenity": "restaurant",
        "name": "Le Paradis"
      }
    },
    {
      "type": "node",
      "id": 292182778,
      "lat": 46.5334233,
      "lon": 6.5914205,
      "tags": {
        "amenity": "restaurant",
        "check_date:opening_hours": "2023-02-24",
        "name": "Le triangle",
        "opening_hours:signed": "no"
      }
    },
    {
      "type": "node",
      "id": 292183626,
      "lat": 46.5097567,
      "lon": 6.4997709,
      "tags": {
        "amenity": "restaurant",
        "cuisine": "regional",
        "name": "Metropolis",
        "wheelchair": "no"
      }
    },
    {
      "type": "node",
      "id": 292183798,
      "lat": 46.5118194,
      "lon": 6.4998891,
      "tags": {
        "addr:city": "Morges",
        "addr:country": "CH",
        "addr:housenumber": "2",
        "addr:postcode": "1110",
        "addr:street": "Rue Docteur Yersin",
        "amenity": "restaurant",
        "cuisine": "chinese",
        "name": "Fu-Yiu",
        "phone": "+41 (0) 21 801 15 01",
        "website": "https://fuyiu.simdif.com/",
        "wheelchair": "limited"
      }
    },
    {
      "type": "node",
      "id": 294867893,
      "lat": 46.7263318,
      "lon": 6.7110953,
      "tags": {
        "amenity": "restaurant",
        "check_date": "2022-07-15",
        "name": "À La Petite Auberge",
        "website": "https://a-la-petite-auberge.business.site/"
      }
    },
    {
      "type": "node",
      "id": 294870547,
      "lat": 46.7430024,
      "lon": 6.7138763,
      "tags": {
        "amenity": "restaurant",
        "check_date": "2022-07-15",
        "name": "Clef des Champs",
        "website": "https://www.clefdeschampsdonneloye.com"
      }
    },
    {
      "type": "node",
      "id": 294888311,
      "lat": 46.830466,
      "lon": 6.6582032,
      "tags": {
        "amenity": "restaurant",
        "name": "Restaurant du Raisin",
        "wheelchair": "no"
      }
    },
    {
      "type": "node",
      "id": 295953230,
      "lat": 46.7847887,
      "lon": 6.648756,
      "tags": {
        "amenity": "restaurant",
        "name": "Buvette du Camping Yverdon Plage",
        "wheelchair": "yes"
      }
    },
    {
      "type": "node",
      "id": 297070214,
      "lat": 46.7851473,
      "lon": 6.6277179,
      "tags": {
        "amenity": "restaurant",
        "capacity": "50",
        "cuisine": "french;regional;steak_house",
        "name": "Bistrot des Uttins",
        "outdoor_seating": "yes",
        "toilets:wheelchair": "no",
        "wheelchair": "no"
      }
    },
    {
      "type": "node",
      "id": 298560937,
      "lat": 46.7671822,
      "lon": 6.6567079,
      "tags": {
        "amenity": "restaurant",
        "name": "La Maison Blanche",
        "toilets:wheelchair": "no",
        "wheelchair": "yes"
      }
    },
    {
      "type": "node",
      "id": 298568570,
      "lat": 46.7700155,
      "lon": 6.6571965,
      "tags": {
        "amenity": "restaurant",
        "name": "Restaurant du Stand"
      }
    },
    {
      "type": "node",
      "id": 302362713,
      "lat": 46.6922513,
      "lon": 6.708544,
      "tags": {
        "amenity": "restaurant",
        "name": "Au Bourlatsapi"
      }
    },
    {
      "type": "node",
      "id": 303900147,
      "lat": 46.6147168,
      "lon": 6.6389873,
      "tags": {
        "amenity": "restaurant",
        "name": "Moulin d'Assens"
      }
    },
    {
      "type": "node",
      "id": 305925631,
      "lat": 46.6061462,
      "lon": 6.5229716,
      "tags": {
        "amenity": "fast_food",
        "name": "Penthalaz Kebab Pizza",
        "opening_hours": "Mo-Th 11:00-14:30,17:00-22:00; Fr,Sa 11:00-22:00; Su 12:00-22:00"
      }
    },
    {
      "type": "node",
      "id": 306672986,
      "lat": 46.5822654,
      "lon": 6.6013926,
      "tags": {
        "addr:housenumber": "9B",
        "addr:street": "Route de Genève",
        "amenity": "fast_food",
        "brand": "McDonald's",
        "brand:wikidata": "Q38076",
        "brand:wikipedia": "en:McDonald's",
        "cuisine": "burger",
        "drive_through": "yes",
        "internet_access": "wlan",
        "name": "McDonald's",
        "opening_hours": "Mo-Th 08:00-00:00; Fr 06:00-01:00; Sa 08:00-01:00; Su 08:00-00:00",
        "operator": "McDonald's",
        "phone": "+41 21 847 00 70",
        "smoking": "no",
        "takeaway": "yes",
        "wheelchair": "yes"
      }
    },
    {
      "type": "node",
      "id": 307504383,
      "lat": 46.7343463,
      "lon": 6.7406708,
      "tags": {
        "amenity": "restaurant",
        "name": "Le Temple du Ciel"
      }
    },
    {
      "type": "node",
      "id": 309289389,
      "lat": 46.6408724,
      "lon": 6.6366259,
      "tags": {
        "addr:city": "Echallens",
        "addr:housenumber": "4",
        "addr:postcode": "1040",
        "addr:street": "Place Emile Gardaz",
        "amenity": "restaurant",
        "cuisine": "pizzeria;pizza;salad;bistro;european",
        "name": "Auberge de la Couronne",
        "opening_hours": "Lu, Me, Je : 08:00-23:00 / Ve, Sa : 08:30-23:00 / Di : 09:00-22:00",
        "phone": "+41 21 881 11 77",
        "website": "https://www.aubergecouronne.ch/"
      }
    },
    {
      "type": "node",
      "id": 309958991,
      "lat": 46.6349433,
      "lon": 6.6075372,
      "tags": {
        "addr:city": "Saint-Bartélémy",
        "addr:country": "CH",
        "addr:housenumber": "80",
        "addr:postcode": "1040",
        "addr:street": "Route du Village",
        "amenity": "restaurant",
        "diet:vegetarian": "yes",
        "name": "Auberge du Talent",
        "opening_hours": "Mo-Su 08:00-23:00",
        "phone": "+41 21 881 28 53",
        "website": "https://www.auberge-du-talent.ch",
        "wheelchair": "yes"
      }
    },
    {
      "type": "node",
      "id": 309965567,
      "lat": 46.7028514,
      "lon": 6.5995826,
      "tags": {
        "amenity": "restaurant",
        "name": "Auberge de la Balance",
        "wheelchair": "yes"
      }
    },
    {
      "type": "node",
      "id": 309976306,
      "lat": 46.6034328,
      "lon": 6.5831501,
      "tags": {
        "amenity": "restaurant",
        "name": "Café Restaurant le Boussinois"
      }
    },
    {
      "type": "node",
      "id": 310387725,
      "lat": 46.5435104,
      "lon": 6.6608376,
      "tags": {
        "addr:city": "Epalinges",
        "addr:housenumber": "2",
        "addr:postcode": "1066",
        "addr:street": "Chemin des Croisettes",
        "amenity": "restaurant",
        "diet:seasonal": "yes",
        "indoor_seating": "yes",
        "name": "L'Union",
        "opening_hours": "Mo-Tu 07:00-15:00; We-Fr 07:00-22:00; Sa 09:00-22:00",
        "outdoor_seating": "yes",
        "phone": "+41 21 654 41 00",
        "tourism": "hotel",
        "website": "https://restaurant-lunion-epalinges.jimdosite.com/"
      }
    },
    {
      "type": "node",
      "id": 310387732,
      "lat": 46.5444213,
      "lon": 6.6592747,
      "tags": {
        "addr:housenumber": "21",
        "addr:postcode": "1066",
        "addr:street": "Chemin des Croisettes",
        "amenity": "restaurant",
        "cuisine": "steak_house;pizza;portuguese;local;coffee_shop",
        "name": "Pizzeria des Tuileries"
      }
    },
    {
      "type": "node",
      "id": 310601691,
      "lat": 46.4387872,
      "lon": 6.3052429,
      "tags": {
        "addr:city": "Bursinel",
        "addr:housenumber": "26",
        "addr:street": "Route du Village",
        "alt_name": "La Clef D'Or",
        "amenity": "restaurant",
        "cuisine": "regional",
        "name": "Auberge communale",
        "website": "https://www.laclefdor.ch/"
      }
    },
    {
      "type": "node",
      "id": 311006067,
      "lat": 46.5439359,
      "lon": 6.6584956,
      "tags": {
        "addr:housenumber": "38",
        "addr:street": "Chemin des Roches",
        "amenity": "cafe",
        "cuisine": "coffee_shop;local",
        "name": "Restaurant des Roches",
        "phone": "+41216536560"
      }
    },
    {
      "type": "node",
      "id": 312013489,
      "lat": 46.523732,
      "lon": 6.6246058,
      "tags": {
        "amenity": "restaurant",
        "check_date:opening_hours": "2023-06-09",
        "diet:vegetarian": "yes",
        "name": "Cavallo Blanco",
        "opening_hours": "Mo-Sa 10:00-24:00; Su 17:00-24:00",
        "wheelchair": "yes"
      }
    },
    {
      "type": "node",
      "id": 312013494,
      "lat": 46.5237751,
      "lon": 6.6239393,
      "tags": {
        "amenity": "restaurant",
        "cuisine": "sushi",
        "name": "Isshin",
        "website": "https://www.isshinsushi.ch/"
      }
    },
    {
      "type": "node",
      "id": 312013496,
      "lat": 46.5239142,
      "lon": 6.6247761,
      "tags": {
        "amenity": "restaurant",
        "cuisine": "asian",
        "diet:vegetarian": "yes",
        "name": "Saigon",
        "opening_hours": "Mo-Fr 10:30-14:30,18:00-23:30; Sa,Su 10:00-23:30",
        "wheelchair": "no"
      }
    },
    {
      "type": "node",
      "id": 315548302,
      "lat": 46.5380823,
      "lon": 6.332932,
      "tags": {
        "amenity": "restaurant",
        "name": "Café du Commerce"
      }
    },
    {
      "type": "node",
      "id": 316722852,
      "lat": 46.3825608,
      "lon": 6.2429869,
      "tags": {
        "amenity": "restaurant",
        "name": "Le Débarcadère",
        "outdoor_seating": "yes"
      }
    },
    {
      "type": "node",
      "id": 316722853,
      "lat": 46.3831707,
      "lon": 6.2440325,
      "tags": {
        "amenity": "restaurant",
        "diet:vegetarian": "yes",
        "name": "O' Les Terrasses du Lac",
        "outdoor_seating": "yes",
        "website": "https://olesterrassesdulac.ch/",
        "wheelchair": "yes"
      }
    },
    {
      "type": "node",
      "id": 316722854,
      "lat": 46.3827789,
      "lon": 6.2433051,
      "tags": {
        "amenity": "restaurant",
        "name": "Le Léman",
        "outdoor_seating": "yes",
        "website": "https://restorive-nyon.ch/le-leman-restaurant-a-nyon/"
      }
    },
    {
      "type": "node",
      "id": 316722855,
      "lat": 46.3819051,
      "lon": 6.2427885,
      "tags": {
        "amenity": "restaurant",
        "name": "Quai 23",
        "wheelchair": "yes"
      }
    },
    {
      "type": "node",
      "id": 317224864,
      "lat": 46.7912543,
      "lon": 6.6118552,
      "tags": {
        "amenity": "restaurant",
        "name": "O' Montagny",
        "opening_hours": "Mo-Tu 18:30-23:00; We-Fr 11:30-14:00,18:30-23:00, Sa \"Sur réservation\"",
        "outdoor_seating": "yes",
        "phone": "+41 024 534 30 30",
        "website": "https://o-montagny.ch/"
      }
    },
    {
      "type": "node",
      "id": 319274957,
      "lat": 46.8237764,
      "lon": 6.5776587,
      "tags": {
        "addr:city": "Vugelles-la-Mothe",
        "addr:country": "CH",
        "addr:housenumber": "2, 4",
        "addr:place": "Vugelles",
        "addr:postcode": "1431",
        "addr:street": "Rue des Trois Fontaines",
        "amenity": "restaurant",
        "name": "La Croix Fédérale"
      }
    },
    {
      "type": "node",
      "id": 319782572,
      "lat": 46.4925715,
      "lon": 6.3960019,
      "tags": {
        "amenity": "restaurant",
        "name": "L'Esplanade"
      }
    },
    {
      "type": "node",
      "id": 320657893,
      "lat": 46.3397611,
      "lon": 6.931637,
      "tags": {
        "addr:postcode": "1853",
        "amenity": "fast_food",
        "brand": "McDonald's",
        "brand:wikidata": "Q38076",
        "brand:wikipedia": "en:McDonald's",
        "cuisine": "burger",
        "name": "McDonald's",
        "name:fr": "McDonald's Chablais Est",
        "phone": "+41244665380",
        "takeaway": "yes"
      }
    },
    {
      "type": "node",
      "id": 321986248,
      "lat": 46.348941,
      "lon": 7.1585864,
      "tags": {
        "amenity": "restaurant",
        "cuisine": "chinese",
        "name": "L'Ormonan"
      }
    },
    {
      "type": "node",
      "id": 325216239,
      "lat": 46.7059545,
      "lon": 6.7576662,
      "tags": {
        "amenity": "cafe",
        "name": "Au Pêché Mignon",
        "shop": "bakery"
      }
    },
    {
      "type": "node",
      "id": 330355993,
      "lat": 46.5291759,
      "lon": 6.5901475,
      "tags": {
        "amenity": "restaurant",
        "name": "Restaurant du Chêne"
      }
    },
    {
      "type": "node",
      "id": 330356930,
      "lat": 46.5365369,
      "lon": 6.5781752,
      "tags": {
        "amenity": "fast_food",
        "cuisine": "kebab",
        "name": "Le Monde du Snack, Pizza+kebab",
        "opening_hours": "Mo-Su 10:00-24:00"
      }
    },
    {
      "type": "node",
      "id": 330358519,
      "lat": 46.5201327,
      "lon": 6.5654592,
      "tags": {
        "amenity": "restaurant",
        "diet:vegan": "no",
        "diet:vegetarian": "yes",
        "indoor_seating": "yes",
        "name": "L'esplanade",
        "opening_hours": "Mo-Fr 07:00-19:00",
        "outdoor_seating": "yes",
        "payment:credit_cards": "yes",
        "payment:debit_cards": "yes",
        "smoking": "outside",
        "wheelchair": "yes"
      }
    },
    {
      "type": "node",
      "id": 331314615,
      "lat": 46.8347258,
      "lon": 6.5203156,
      "tags": {
        "amenity": "restaurant",
        "name": "La Casba"
      }
    },
    {
      "type": "node",
      "id": 331917561,
      "lat": 46.5842009,
      "lon": 6.6048588,
      "tags": {
        "amenity": "restaurant",
        "email": "info@galion.ch",
        "name": "Galion´s Pub",
        "opening_hours": "Mo-Th 06:30-24:00, Fr 06:30-01:00, Sa 15:30-01:00, Su 15:30-24:00",
        "phone": "+41 21 703 17 17",
        "toilets:wheelchair": "yes",
        "website": "https://galion.ch",
        "wheelchair": "yes"
      }
    },
    {
      "type": "node",
      "id": 331917568,
      "lat": 46.5843458,
      "lon": 6.6045565,
      "tags": {
        "addr:city": "Cheseaux-sur-Lausanne",
        "addr:housenumber": "4",
        "addr:postcode": "1033",
        "addr:street": "Route de Genève",
        "amenity": "cafe",
        "internet_access": "wlan",
        "internet_access:fee": "no",
        "name": "Tea-room Au P'tit Bonheur",
        "opening_hours": "Mo 06:00-12:00, Tu-Fr 06:00-18:00, Sa 07:00-18:00, Su 07:00-12:00",
        "wheelchair": "limited"
      }
    },
    {
      "type": "node",
      "id": 333129707,
      "lat": 46.5634365,
      "lon": 6.6062135,
      "tags": {
        "amenity": "restaurant",
        "cuisine": "regional",
        "name": "Adore",
        "opening_hours": "Mo-Fr 08:00-23:30; Sa 17:00-24:00"
      }
    },
    {
      "type": "node",
      "id": 333788474,
      "lat": 46.3648498,
      "lon": 7.0067635,
      "tags": {
        "amenity": "cafe",
        "name": "Aï"
      }
    },
    {
      "type": "node",
      "id": 334500409,
      "lat": 46.520841,
      "lon": 6.5643819,
      "tags": {
        "amenity": "restaurant",
        "diet:vegetarian": "yes",
        "name": "Piano",
        "opening_hours": "Mo-Fr 11:30-13:30",
        "website": "https://www.epfl.ch/campus/restaurants-shops-hotels/fr/restauration/self-service/le-corbusier/",
        "wheelchair": "yes"
      }
    },
    {
      "type": "node",
      "id": 334500410,
      "lat": 46.5203721,
      "lon": 6.5672157,
      "tags": {
        "amenity": "restaurant",
        "diet:vegetarian": "yes",
        "name": "Le Parmentier",
        "opening_hours": "Mo-Fr 11:00-14:00; Mo-Th 18:00-20:00"
      }
    },
    {
      "type": "node",
      "id": 334500411,
      "lat": 46.520374,
      "lon": 6.5675081,
      "tags": {
        "amenity": "restaurant",
        "diet:vegetarian": "yes",
        "name": "Le Native, Foodlab",
        "opening_hours": "Mo-Fr 11:30-14:00"
      }
    },
    {
      "type": "node",
      "id": 334500412,
      "lat": 46.520333,
      "lon": 6.5688234,
      "tags": {
        "amenity": "restaurant",
        "name": "Le Copernic",
        "opening_hours": "Mo-Fr 12:00-14:00"
      }
    },
    {
      "type": "node",
      "id": 338856931,
      "lat": 46.2955404,
      "lon": 7.1031598,
      "tags": {
        "addr:housenumber": "39",
        "addr:postcode": "1882",
        "addr:street": "Route des Chaux",
        "amenity": "restaurant",
        "name": "Chez Gipsy",
        "opening_hours": "Mo-Su 09:30-17:00",
        "outdoor_seating": "yes",
        "phone": "+41 24 498 11 87",
        "self_service": "yes",
        "toilets": "yes",
        "toilets:access": "customers",
        "website": "https://www.chezgipsy.ch"
      }
    },
    {
      "type": "node",
      "id": 338856977,
      "lat": 46.3110325,
      "lon": 7.079067,
      "tags": {
        "amenity": "restaurant",
        "name": "Le Panoramique (Golf Club)",
        "outdoor_seating": "yes"
      }
    },
    {
      "type": "node",
      "id": 339797075,
      "lat": 46.5360463,
      "lon": 6.5875965,
      "tags": {
        "addr:city": "Renens",
        "addr:housenumber": "2",
        "addr:postcode": "1020",
        "addr:street": "Avenue du Temple",
        "amenity": "restaurant",
        "cuisine": "pizza",
        "name": "La Rose Rouge",
        "opening_hours": "Tu-Fr 08:00-24:00; Sa 17:00-24:00; Su 09:00-24:00",
        "smoking": "no",
        "takeaway": "yes"
      }
    },
    {
      "type": "node",
      "id": 343337223,
      "lat": 46.6799068,
      "lon": 6.3505598,
      "tags": {
        "amenity": "restaurant",
        "name": "Buvette de la Dent de Vaulion",
        "website": "http://www.buvettedentvaulion.ch/"
      }
    },
    {
      "type": "node",
      "id": 343338118,
      "lat": 46.6630839,
      "lon": 6.3686058,
      "tags": {
        "alt_name": "La Breguette",
        "amenity": "restaurant",
        "name": "La Breguettaz"
      }
    },
    {
      "type": "node",
      "id": 347816932,
      "lat": 46.5089213,
      "lon": 6.4994102,
      "tags": {
        "amenity": "cafe",
        "indoor_seating": "yes",
        "name": "Le Balzac",
        "opening_hours": "Tu-Fr 10:00-17:00; Sa 09:00-18:00",
        "outdoor_seating": "yes",
        "wheelchair": "no"
      }
    },
    {
      "type": "node",
      "id": 347818138,
      "lat": 46.5090524,
      "lon": 6.4981868,
      "tags": {
        "amenity": "cafe",
        "internet_access": "wlan",
        "name": "L'Arlequin",
        "opening_hours": "Tu-Fr 07:00-18:30; Sa,Su 07:00-18:00",
        "operator": "Fornerod",
        "outdoor_seating": "yes",
        "phone": "+41 21 801 21 24",
        "website": "https://www.fornerod.ch/"
      }
    },
    {
      "type": "node",
      "id": 352804903,
      "lat": 46.5480674,
      "lon": 6.5536471,
      "tags": {
        "amenity": "restaurant",
        "cuisine": "indian",
        "name": "La Maison Tandoori"
      }
    },
    {
      "type": "node",
      "id": 367071908,
      "lat": 46.5136279,
      "lon": 6.5448652,
      "tags": {
        "amenity": "restaurant",
        "cuisine": "asian",
        "name": "L'Empire du Dragon"
      }
    },
    {
      "type": "node",
      "id": 370382417,
      "lat": 46.4635305,
      "lon": 6.8375188,
      "tags": {
        "amenity": "fast_food",
        "name": "Urumqi"
      }
    },
    {
      "type": "node",
      "id": 370382419,
      "lat": 46.4631649,
      "lon": 6.8376217,
      "tags": {
        "amenity": "fast_food",
        "cuisine": "pizza",
        "name": "Jet Pizza"
      }
    },
    {
      "type": "node",
      "id": 370383054,
      "lat": 46.4610845,
      "lon": 6.8413267,
      "tags": {
        "amenity": "restaurant",
        "cuisine": "chinese",
        "name": "China House",
        "opening_hours": "Mo, We-Su 18:00-21:30",
        "phone": "+41 21 922 48 08",
        "takeaway": "yes",
        "website": "https://www.chinahousevevey.ch"
      }
    },
    {
      "type": "node",
      "id": 370383065,
      "lat": 46.4614338,
      "lon": 6.8410284,
      "tags": {
        "amenity": "fast_food",
        "name": "Star Grill"
      }
    },
    {
      "type": "node",
      "id": 370383067,
      "lat": 46.4613326,
      "lon": 6.8411866,
      "tags": {
        "amenity": "cafe",
        "cuisine": "salad;burger;pizza",
        "name": "Rex Café",
        "opening_hours": "We 15:00-22:00; Th 17:30-22:00; Fr 17:30-00:00; Sa 15:00-00:00; Su 11:30-22:00",
        "website": "https://www.rexcafe.ch/"
      }
    },
    {
      "type": "node",
      "id": 370383114,
      "lat": 46.4631973,
      "lon": 6.840978,
      "tags": {
        "addr:city": "Vevey",
        "addr:country": "CH",
        "addr:postcode": "1800",
        "addr:street": "Avenue du Général Guisan",
        "amenity": "fast_food",
        "brand": "McDonald's",
        "brand:wikidata": "Q38076",
        "brand:wikipedia": "en:McDonald's",
        "cuisine": "burger",
        "name": "McDonald's",
        "operator": "McDonald's",
        "smoking": "outside",
        "takeaway": "yes"
      }
    },
    {
      "type": "node",
      "id": 370383124,
      "lat": 46.4630321,
      "lon": 6.8407118,
      "tags": {
        "amenity": "restaurant",
        "name": "Manora",
        "wheelchair": "yes"
      }
    },
    {
      "type": "node",
      "id": 392379440,
      "lat": 46.5211647,
      "lon": 6.6299392,
      "tags": {
        "addr:city": "Lausanne",
        "addr:housenumber": "9",
        "addr:postcode": "1003",
        "addr:street": "Place de l'Europe",
        "alt_name": "Kentucky Fried Chicken",
        "amenity": "fast_food",
        "brand": "KFC",
        "brand:wikidata": "Q524757",
        "brand:wikipedia": "en:KFC",
        "cuisine": "chicken",
        "drive_through": "no",
        "name": "KFC",
        "operator": "KFC",
        "takeaway": "yes",
        "toilets:wheelchair": "yes",
        "wheelchair": "yes"
      }
    },
    {
      "type": "node",
      "id": 402922574,
      "lat": 46.5059938,
      "lon": 6.6627064,
      "tags": {
        "amenity": "restaurant",
        "cuisine": "regional",
        "name": "Restaurant Port de Pully"
      }
    },
    {
      "type": "node",
      "id": 408170136,
      "lat": 46.5405211,
      "lon": 6.7045254,
      "tags": {
        "addr:city": "Savigny",
        "addr:housenumber": "23",
        "addr:street": "Route de la Claie-aux-Moines",
        "amenity": "restaurant",
        "facebook": "Restaurant-De-La-Claie-aux-Moines-100052319905035",
        "name": "Claie-aux-Moines",
        "opening_hours": "Mo-Fr 06:00-23:30; Sa 07:00-23:30",
        "phone": "+41 21 784 30 23"
      }
    },
    {
      "type": "node",
      "id": 410724036,
      "lat": 46.5100155,
      "lon": 6.7410593,
      "tags": {
        "addr:housenumber": "26",
        "addr:street": "Route de la Tour de Gourze",
        "amenity": "restaurant",
        "contact:instagram": "tourdegourze",
        "diet:vegetarian": "yes",
        "name": "Tour de Gourze",
        "opening_hours": "Tu-Sa 10:00-23:00; Su 10:00-19:00",
        "phone": "+41 21 781 14 74",
        "website": "https://www.gourze.ch/le-restaurant/"
      }
    },
    {
      "type": "node",
      "id": 410724176,
      "lat": 46.5271088,
      "lon": 6.7703811,
      "tags": {
        "amenity": "restaurant",
        "name": "Relais routiers"
      }
    },
    {
      "type": "node",
      "id": 410725015,
      "lat": 46.5456415,
      "lon": 6.8642573,
      "tags": {
        "addr:postcode": "1612",
        "amenity": "restaurant",
        "cuisine": "pizza;regional",
        "diet:vegetarian": "yes",
        "email": "dias.dina@outlook.com",
        "name": "Auberge d'Ecoteaux",
        "name:fr": "La Piazza - Auberge d'Ecoteaux",
        "opening_hours": "Tu-Th 09:00-14:30,17:30-23:00; Sa 10:00-14:30,17:30-24:00; Su 10:00-16:00; Mo off",
        "phone": "+41 21 907 14 09"
      }
    },
    {
      "type": "node",
      "id": 410725384,
      "lat": 46.5757139,
      "lon": 6.8424073,
      "tags": {
        "addr:city": "Oron-le-Châtel",
        "addr:housenumber": "14",
        "addr:postcode": "1608",
        "addr:street": "Route de Gruyères",
        "amenity": "restaurant",
        "email": "contact@restaurantdelachavanne.ch",
        "name": "Café de la Chavanne",
        "phone": "+41 21 907 71 78",
        "website": "https://restaurantdelachavanne.ch"
      }
    },
    {
      "type": "node",
      "id": 411045848,
      "lat": 46.8758762,
      "lon": 6.6370212,
      "tags": {
        "amenity": "restaurant",
        "cuisine": "regional",
        "name": "La Combaz"
      }
    },
    {
      "type": "node",
      "id": 412723855,
      "lat": 46.4661287,
      "lon": 6.8375486,
      "tags": {
        "amenity": "restaurant",
        "cuisine": "asian",
        "indoor_seating": "yes",
        "name": "Noix de Coco",
        "opening_hours": "Mo-Fr 11:30-13:30, 18:00-21:00; Sa 18:00-21:00",
        "outdoor_seating": "no",
        "phone": "+41 922 37 87"
      }
    },
    {
      "type": "node",
      "id": 412815450,
      "lat": 46.4606503,
      "lon": 6.8427725,
      "tags": {
        "addr:city": "Vevey",
        "addr:country": "CH",
        "addr:housenumber": "1",
        "addr:postcode": "1800",
        "addr:street": "Rue du Théâtre",
        "amenity": "restaurant",
        "contact:facebook": "https://www.facebook.com/LaClef.restaurant/",
        "cuisine": "salad;malakoff;cheese;charcuterie;velouté;falafel;tartare;cordon_bleu;trout;dahl;tomme_vaudoise;foie_de_veau;souris_d'agneau;fish;caponata;chia_pudding;salade_de_fruits;crême_brûlée;fondant_au_chocolat;ice_cream",
        "diet:flexitarian": "yes",
        "diet:homemade": "yes",
        "diet:local": "yes",
        "diet:vegetarian": "yes",
        "level": "0",
        "name": "Café Restaurant La Clef",
        "opening_hours": "Tu-Th 08:00-23:00; Fr-Sa 08:00-24:00",
        "opening_hours:covid19": "Mo-Fr 09:00-23:00; Sa 09:00-15:00",
        "phone": "+4121 922 88 33;+4179 832 82 81",
        "website": "https://www.laclefvevey.ch/"
      }
    },
    {
      "type": "node",
      "id": 412815451,
      "lat": 46.4608198,
      "lon": 6.8429098,
      "tags": {
        "addr:city": "Vevey",
        "addr:country": "CH",
        "addr:housenumber": "3",
        "addr:postcode": "1800",
        "addr:street": "Rue du Théâtre",
        "amenity": "cafe",
        "bar": "yes",
        "contact:facebook": "https://www.facebook.com/brewvevey/",
        "cuisine": "coffee_shop",
        "diet:vegan": "yes",
        "diet:vegetarian": "yes",
        "drink:espresso": "served",
        "drink:filter_coffee": "served",
        "internet_access": "wlan",
        "internet_access:fee": "no",
        "name": "BREW",
        "opening_hours": "Mo-Tu 07:30-18:00, We-Th 07:30-22:00, Fr-Sa 07:30-00:00, Su 10:00-16:00",
        "phone": "+41 21 922 27 50",
        "website": "https://brew-vevey.business.site/",
        "wheelchair": "yes"
      }
    },
    {
      "type": "node",
      "id": 412815453,
      "lat": 46.4612394,
      "lon": 6.8434204,
      "tags": {
        "addr:city": "Vevey",
        "addr:country": "CH",
        "addr:housenumber": "45",
        "addr:postcode": "1800",
        "addr:street": "Rue du Simplon",
        "amenity": "restaurant",
        "check_date:opening_hours": "2025-03-09",
        "contact:facebook": "https://www.facebook.com/MolinoVevey",
        "contact:instagram": "pizzeria_ristorante_molino/",
        "cuisine": "italian",
        "diet:lactose_free": "yes",
        "diet:vegan": "yes",
        "diet:vegetarian": "yes",
        "fax": "+41 21 925 95 46",
        "name": "Pizzeria Ristorante Molino",
        "opening_hours": "Mo-Sa 10:00-23:00; Su 11:00-23:00",
        "phone": "+41 21 925 95 45",
        "takeaway": "no",
        "toilets:wheelchair": "yes",
        "website": "https://molino.ch/fr/restaurants/pizzeria-ristorante-molino-vevey/",
        "wheelchair": "limited"
      }
    },
    {
      "type": "node",
      "id": 412815457,
      "lat": 46.4616411,
      "lon": 6.8436472,
      "tags": {
        "addr:city": "Vevey",
        "addr:country": "CH",
        "addr:housenumber": "2",
        "addr:postcode": "1800",
        "addr:street": "Rue de la Clergère",
        "amenity": "restaurant",
        "capacity": "50",
        "cuisine": "chinese",
        "diet:vegetarian": "yes",
        "email": "taoyuanvevey@bluewin.ch",
        "name": "Tao Yuan",
        "opening_hours": "Mo-Sa 11:30-14:00, 18:30-22:00",
        "outdoor_seating": "no",
        "phone": "+41 21 921 20 33",
        "start_date": "2000",
        "takeaway": "yes",
        "website": "https://www.restaurant-chinois-tao-yuan.ch/"
      }
    },
    {
      "type": "node",
      "id": 412815468,
      "lat": 46.4616422,
      "lon": 6.8428857,
      "tags": {
        "addr:housenumber": "23",
        "addr:street": "Rue de Lausanne",
        "amenity": "cafe",
        "name": "Le 23",
        "opening_hours": "Mo-Th 07:00-19:00; Sa 07:00-20:30; Fr 07:00-20:00"
      }
    },
    {
      "type": "node",
      "id": 412815469,
      "lat": 46.4623486,
      "lon": 6.8425329,
      "tags": {
        "amenity": "cafe",
        "brand": "Starbucks",
        "brand:wikidata": "Q37158",
        "brand:wikipedia": "en:Starbucks",
        "check_date": "2023-10-15",
        "cuisine": "coffee_shop",
        "diet:vegetarian": "yes",
        "indoor_seating": "yes",
        "internet_access": "wlan",
        "name": "Starbucks",
        "official_name": "Starbucks Coffee",
        "opening_hours": "Mo-Su 09:00-19:00",
        "outdoor_seating": "yes",
        "takeaway": "yes",
        "wheelchair": "limited"
      }
    },
    {
      "type": "node",
      "id": 412815477,
      "lat": 46.4625876,
      "lon": 6.8431229,
      "tags": {
        "amenity": "restaurant",
        "check_date": "2023-10-15",
        "name": "Brasserie Historique 1912",
        "opening_hours": "Mo-Su 08:00-23:00",
        "phone": "+41 21 925 04 04",
        "takeaway": "yes",
        "website": "https://astra-hotel.ch/brasserie-bars/"
      }
    },
    {
      "type": "node",
      "id": 412815519,
      "lat": 46.4629563,
      "lon": 6.8398555,
      "tags": {
        "amenity": "fast_food",
        "cuisine": "asian",
        "name": "Délices d'Asie Orientales"
      }
    },
    {
      "type": "node",
      "id": 412815539,
      "lat": 46.4602965,
      "lon": 6.8409917,
      "tags": {
        "addr:city": "Vevey",
        "addr:country": "CH",
        "addr:housenumber": "9",
        "addr:postcode": "1800",
        "addr:street": "Rue du Torrent",
        "amenity": "restaurant",
        "diet:vegetarian": "yes",
        "email": "info@natwork.ch",
        "name": "Le National",
        "opening_hours": "Mo-Su 11:30-14:15, 17:00-23:00",
        "phone": "+41 21 923 76 25",
        "website": "https://www.natio.ch/"
      }
    },
    {
      "type": "node",
      "id": 412817108,
      "lat": 46.3959907,
      "lon": 6.9221898,
      "tags": {
        "amenity": "restaurant",
        "cuisine": "pizza",
        "name": "La Gondola"
      }
    },
    {
      "type": "node",
      "id": 412817131,
      "lat": 46.3963981,
      "lon": 6.9230681,
      "tags": {
        "amenity": "restaurant",
        "cuisine": "thai",
        "name": "Éléphant Blanc",
        "website": "https://www.elephantblanc-ned.ch/"
      }
    },
    {
      "type": "node",
      "id": 413336489,
      "lat": 46.3187018,
      "lon": 6.9872962,
      "tags": {
        "amenity": "restaurant",
        "name": "Café de la Poste"
      }
    },
    {
      "type": "node",
      "id": 413339055,
      "lat": 46.3800993,
      "lon": 7.0836049,
      "tags": {
        "amenity": "restaurant",
        "name": "Auberge de la Poste"
      }
    },
    {
      "type": "node",
      "id": 414665980,
      "lat": 46.3974317,
      "lon": 6.9238682,
      "tags": {
        "addr:city": "Villeneuve",
        "addr:postcode": "1844",
        "amenity": "restaurant",
        "cuisine": "local",
        "name": "L'Oasis",
        "outdoor_seating": "yes",
        "wheelchair": "yes"
      }
    },
    {
      "type": "node",
      "id": 415933197,
      "lat": 46.5196529,
      "lon": 6.5647162,
      "tags": {
        "amenity": "cafe",
        "layer": "0",
        "name": "Cafétéria NIKI",
        "opening_hours": "Mo-Fr 08:00-16:00"
      }
    },
    {
      "type": "node",
      "id": 417747420,
      "lat": 46.472228,
      "lon": 6.8755198,
      "tags": {
        "amenity": "restaurant",
        "cuisine": "regional",
        "name": "Café du Centre"
      }
    },
    {
      "type": "node",
      "id": 417877586,
      "lat": 46.5227635,
      "lon": 6.5802756,
      "tags": {
        "addr:city": "Lausanne",
        "addr:housenumber": "109",
        "addr:postcode": "1015",
        "addr:street": "UNIL - Bâtiment Unithèque",
        "amenity": "restaurant",
        "cuisine": "regional;italian",
        "diet:vegetarian": "yes",
        "fax": "+41 21 692 26 85",
        "name": "Da Nino",
        "opening_hours": "Mo, Tu 08:00-15:00; We-Sa 08:00-15:00, 17:30-00:00",
        "phone": "+41 21 692 26 88",
        "website": "http://www.nino-dorigny.ch"
      }
    },
    {
      "type": "node",
      "id": 417877588,
      "lat": 46.5211797,
      "lon": 6.5740002,
      "tags": {
        "amenity": "restaurant",
        "cuisine": "regional",
        "name": "Caféteria Amphimax"
      }
    },
    {
      "type": "node",
      "id": 417877592,
      "lat": 46.5237719,
      "lon": 6.5839948,
      "tags": {
        "amenity": "restaurant",
        "name": "Cafétéria de l'Anthropole"
      }
    },
    {
      "type": "node",
      "id": 418083178,
      "lat": 46.4874976,
      "lon": 6.8051527,
      "tags": {
        "amenity": "restaurant",
        "name": "Domaine de la Buritaz",
        "opening_hours": "We-Fr 10:00-23:00; Su 09:00-14:00",
        "phone": "+41 21 711 38 06",
        "website": "https://domaineburitaz.ch/"
      }
    },
    {
      "type": "node",
      "id": 418361739,
      "lat": 46.6962056,
      "lon": 6.4783952,
      "tags": {
        "amenity": "restaurant",
        "cuisine": "regional",
        "name": "Café de la Gare"
      }
    },
    {
      "type": "node",
      "id": 418361740,
      "lat": 46.6947815,
      "lon": 6.4743918,
      "tags": {
        "addr:city": "Romainmôtier",
        "addr:country": "CH",
        "addr:housenumber": "3",
        "addr:postcode": "1323",
        "addr:street": "Route du Dîme",
        "amenity": "restaurant",
        "name": "Rôtisserie au Gaulois",
        "phone": "+41 24 453 14 89"
      }
    },
    {
      "type": "node",
      "id": 419327483,
      "lat": 46.7129881,
      "lon": 6.4349737,
      "tags": {
        "amenity": "restaurant",
        "contact:email": "buvettedesauges@gmail.com",
        "contact:phone": "+41 79 607 38 88",
        "cuisine": "regional",
        "name": "Les Auges",
        "website": "https://www.facebook.com/profile.php?id=100065529401449"
      }
    },
    {
      "type": "node",
      "id": 419327521,
      "lat": 46.7122126,
      "lon": 6.4746489,
      "tags": {
        "addr:city": "Bretonnières",
        "addr:country": "CH",
        "addr:housenumber": "2",
        "addr:postcode": "1329",
        "addr:street": "Route d'Agiez",
        "amenity": "restaurant",
        "cuisine": "regional",
        "name": "L'Ecusson vaudois",
        "opening_hours": "Tu-Sa 08:00-23:00; Su 10:00-15:00",
        "phone": "+41 24 565 99 00",
        "website": "https://www.restaurant-ecusson-vaudois.ch/"
      }
    },
    {
      "type": "node",
      "id": 420370213,
      "lat": 46.4708715,
      "lon": 6.423605,
      "tags": {
        "amenity": "restaurant",
        "cuisine": "regional",
        "name": "Au Vieux Navire"
      }
    },
    {
      "type": "node",
      "id": 420370237,
      "lat": 46.4742486,
      "lon": 6.4089167,
      "tags": {
        "amenity": "restaurant",
        "cuisine": "thai",
        "name": "Sabai Thai",
        "opening_hours": "Mo off; Tu-Fr 10:30-14:30,17:30-23:00; Sa 11:00-15:00,17:30-23:00; Su off",
        "phone": "+41 21 808 02 56",
        "website": "https://www.sabaithai.ch/"
      }
    },
    {
      "type": "node",
      "id": 420544943,
      "lat": 46.5194865,
      "lon": 6.5724095,
      "tags": {
        "amenity": "cafe"
      }
    },
    {
      "type": "node",
      "id": 420550741,
      "lat": 46.5221165,
      "lon": 6.5842811,
      "tags": {
        "amenity": "restaurant",
        "name": "Cafétéria de l'Internef"
      }
    },
    {
      "type": "node",
      "id": 423792903,
      "lat": 46.5414613,
      "lon": 6.617506,
      "tags": {
        "amenity": "restaurant",
        "check_date:opening_hours": "2023-12-14",
        "diet:vegan": "no",
        "diet:vegetarian": "yes",
        "name": "Restaurant de l'Aéroport",
        "opening_hours": "Mo-Su,PH 08:00-23:00",
        "wheelchair": "yes"
      }
    },
    {
      "type": "node",
      "id": 423801204,
      "lat": 46.5183541,
      "lon": 6.5620608,
      "tags": {
        "amenity": "cafe",
        "cuisine": "french",
        "indoor_seating": "yes",
        "name": "Self-service Hopper",
        "opening_hours": "Mo-Sa 08:00-15:00",
        "outdoor_seating": "yes",
        "payment:credit_cards": "yes",
        "payment:debit_cards": "yes",
        "smoking": "outside",
        "website": "https://www.epfl.ch/campus/restaurants-shops-hotels/fr/restauration/self-service/cafeteria-bc/"
      }
    },
    {
      "type": "node",
      "id": 428004541,
      "lat": 46.4651427,
      "lon": 6.3825654,
      "tags": {
        "addr:city": "Allaman",
        "addr:housenumber": "35",
        "addr:postcode": "1165",
        "addr:street": "Route de la Plage",
        "amenity": "restaurant",
        "cuisine": "regional",
        "name": "La Pêcherie",
        "phone": "+41 21 807 30 37",
        "website": "https://www.restaurantlapecherie.ch/",
        "wheelchair": "limited"
      }
    },
    {
      "type": "node",
      "id": 428208368,
      "lat": 46.5489505,
      "lon": 6.5528869,
      "tags": {
        "addr:city": "Bussigny",
        "addr:housenumber": "13",
        "addr:street": "Rue de la Gare",
        "amenity": "cafe",
        "name": "Fleur de Pains",
        "wheelchair": "limited"
      }
    },
    {
      "type": "node",
      "id": 428208390,
      "lat": 46.5487379,
      "lon": 6.5533004,
      "tags": {
        "addr:city": "Bussigny",
        "addr:housenumber": "1",
        "addr:postcode": "1030",
        "addr:street": "Rue de l'Industrie",
        "amenity": "restaurant",
        "cuisine": "kebab",
        "name": "Deli K"
      }
    },
    {
      "type": "node",
      "id": 428208798,
      "lat": 46.5316226,
      "lon": 6.5884676,
      "tags": {
        "amenity": "restaurant",
        "name": "Café Restaurant du Léman",
        "opening_hours": "Mo-Fr 07:00-23:00; Sa 09:00-23:00"
      }
    },
    {
      "type": "node",
      "id": 428244212,
      "lat": 46.3818159,
      "lon": 6.242779,
      "tags": {
        "amenity": "restaurant",
        "cuisine": "chinese;vietnamese;thai",
        "delivery": "yes",
        "diet:vegetarian": "yes",
        "name": "Mekong",
        "opening_hours": "Tu-Su 12:00-14:00, 18:00-21:30",
        "outdoor_seating": "yes",
        "phone": "+41 22 362 54 84",
        "takeaway": "yes",
        "website": "https://www.mekongnyon.ch/"
      }
    },
    {
      "type": "node",
      "id": 428467209,
      "lat": 46.3829623,
      "lon": 6.2367526,
      "tags": {
        "amenity": "fast_food",
        "brand": "McDonald's",
        "brand:wikidata": "Q38076",
        "brand:wikipedia": "en:McDonald's",
        "cuisine": "burger",
        "drive_through": "no",
        "name": "McDonald's",
        "operator": "McDonald's",
        "outdoor_seating": "yes",
        "phone": "+41 22 362 64 63",
        "smoking": "no",
        "takeaway": "yes",
        "website": "https://www.mcdonalds.ch/fr/restaurants/nyon-centre"
      }
    },
    {
      "type": "node",
      "id": 428467232,
      "lat": 46.3813679,
      "lon": 6.2416194,
      "tags": {
        "amenity": "restaurant",
        "name": "Au Cheval Blanc"
      }
    },
    {
      "type": "node",
      "id": 428479663,
      "lat": 46.4463344,
      "lon": 6.158153,
      "tags": {
        "amenity": "restaurant",
        "cuisine": "swiss",
        "name": "Restaurant du Jura"
      }
    },
    {
      "type": "node",
      "id": 428479666,
      "lat": 46.4476503,
      "lon": 6.1589913,
      "tags": {
        "addr:city": "Saint-Cergue",
        "addr:housenumber": "2",
        "addr:street": "Rue de la Gare",
        "amenity": "restaurant",
        "cuisine": "local;pizza",
        "name": "Les Cytises",
        "wheelchair": "no"
      }
    },
    {
      "type": "node",
      "id": 428635837,
      "lat": 46.3823873,
      "lon": 6.2431485,
      "tags": {
        "amenity": "restaurant",
        "name": "La Brasserie du Rive",
        "outdoor_seating": "yes",
        "website": "https://hotel-le-rive.ch/brasserie.html"
      }
    },
    {
      "type": "node",
      "id": 428781989,
      "lat": 46.5014332,
      "lon": 6.4045951,
      "tags": {
        "addr:city": "Lavigny",
        "addr:housenumber": "43",
        "addr:postcode": "1175",
        "addr:street": "Route du Vignoble",
        "amenity": "restaurant",
        "internet_access": "wlan",
        "internet_access:fee": "no",
        "name": "Auberge de La Croix-Blanche",
        "rooms": "3",
        "website": "https://www.aubergelavigny.ch"
      }
    },
    {
      "type": "node",
      "id": 428804039,
      "lat": 46.3830283,
      "lon": 6.2376325,
      "tags": {
        "amenity": "restaurant",
        "cuisine": "italian",
        "name": "La Croix-Verte",
        "opening_hours": "Mo-Th 09:30-15:00, 17:00-00:00; Fr, Sa 09:30-00:00; Su 09:30-23:00",
        "website": "https://www.croixverte.ch/"
      }
    },
    {
      "type": "node",
      "id": 428933763,
      "lat": 46.380503,
      "lon": 6.9000552,
      "tags": {
        "amenity": "restaurant",
        "name": "Restaurant de la Truite"
      }
    },
    {
      "type": "node",
      "id": 428933778,
      "lat": 46.4882521,
      "lon": 6.7307601,
      "tags": {
        "amenity": "restaurant",
        "cuisine": "regional",
        "name": "Café de la Poste"
      }
    },
    {
      "type": "node",
      "id": 428965980,
      "lat": 46.5084895,
      "lon": 6.4968067,
      "tags": {
        "addr:city": "Morges",
        "addr:country": "CH",
        "addr:housenumber": "5",
        "addr:postcode": "1110",
        "addr:street": "Passage de la Couronne",
        "amenity": "restaurant",
        "cuisine": "regional",
        "name": "Le XXe Siècle",
        "phone": "+41 (0) 21 801 27 00",
        "website": "https://www.xxemesiecle.com/",
        "wheelchair": "yes"
      }
    },
    {
      "type": "node",
      "id": 429197744,
      "lat": 46.4351471,
      "lon": 6.217563,
      "tags": {
        "amenity": "restaurant",
        "name": "Auberge Au 3 Tilleuls"
      }
    },
    {
      "type": "node",
      "id": 429360402,
      "lat": 46.539045,
      "lon": 6.7314162,
      "tags": {
        "amenity": "cafe",
        "cuisine": "coffee_shop",
        "name": "Bar à café La Savignoise",
        "name:fr": "Bar à café La Savignoise"
      }
    },
    {
      "type": "node",
      "id": 431210787,
      "lat": 46.6246341,
      "lon": 6.4371829,
      "tags": {
        "addr:postcode": "1148",
        "amenity": "restaurant",
        "cuisine": "regional",
        "name": "Hôtel de France"
      }
    },
    {
      "type": "node",
      "id": 431535063,
      "lat": 46.4626357,
      "lon": 6.3625047,
      "tags": {
        "amenity": "restaurant",
        "name": "Buvette de la Plage de Perroy"
      }
    },
    {
      "type": "node",
      "id": 431672279,
      "lat": 46.6156254,
      "lon": 6.4722145,
      "tags": {
        "amenity": "restaurant",
        "name": "Auberge Communale de La Chaux",
        "wheelchair": "yes"
      }
    },
    {
      "type": "node",
      "id": 434303401,
      "lat": 46.3640819,
      "lon": 7.1864876,
      "tags": {
        "amenity": "restaurant",
        "name": "Buvette"
      }
    },
    {
      "type": "node",
      "id": 434303425,
      "lat": 46.3632816,
      "lon": 7.1838063,
      "tags": {
        "amenity": "restaurant",
        "name": "Resto d'Isneau"
      }
    },
    {
      "type": "node",
      "id": 440628288,
      "lat": 46.5374024,
      "lon": 6.3333919,
      "tags": {
        "addr:housenumber": "2",
        "addr:street": "Rue de la Tillette",
        "amenity": "restaurant",
        "name": "Hôtel des Trois Sapins"
      }
    },
    {
      "type": "node",
      "id": 441149835,
      "lat": 46.5252346,
      "lon": 6.6422132,
      "tags": {
        "amenity": "cafe",
        "level": "8",
        "name": "Caféteria"
      }
    },
    {
      "type": "node",
      "id": 441246118,
      "lat": 46.5031161,
      "lon": 6.6836365,
      "tags": {
        "amenity": "restaurant",
        "name": "Restaurant de la Tour"
      }
    },
    {
      "type": "node",
      "id": 441247222,
      "lat": 46.5022485,
      "lon": 6.6848737,
      "tags": {
        "addr:city": "Lutry",
        "addr:housenumber": "1",
        "addr:postcode": "1095",
        "addr:street": "Place des Halles",
        "amenity": "cafe",
        "name": "Le Richelieu"
      }
    },
    {
      "type": "node",
      "id": 441247633,
      "lat": 46.5025249,
      "lon": 6.684963,
      "tags": {
        "addr:city": "Lutry",
        "addr:housenumber": "19",
        "addr:postcode": "1095",
        "addr:street": "Grand-Rue",
        "alt_name": "Restaurant La Cevicheria",
        "amenity": "restaurant",
        "name": "Restaurant du Léman"
      }
    },
    {
      "type": "node",
      "id": 441249670,
      "lat": 46.5026682,
      "lon": 6.6855249,
      "tags": {
        "addr:city": "Lutry",
        "addr:housenumber": "3",
        "addr:postcode": "1095",
        "addr:street": "Rue Verdaine",
        "amenity": "fast_food",
        "cuisine": "burger",
        "delivery": "no",
        "name": "Non-Stop Burger",
        "opening_hours": "Mo-SU 11:00-23:00",
        "opening_hours:url": "http://www.nonstoplutry.ch/?page_id=4",
        "phone": "+41 21 791 14 45",
        "smoking": "outside",
        "takeaway": "yes",
        "website": "https://www.nonstoplutry.ch/"
      }
    },
    {
      "type": "node",
      "id": 441284747,
      "lat": 46.5020999,
      "lon": 6.6862828,
      "tags": {
        "addr:city": "Lutry",
        "addr:housenumber": "48",
        "addr:postcode": "1095",
        "addr:street": "Grand'Rue",
        "amenity": "restaurant",
        "name": "Café de la Poste"
      }
    },
    {
      "type": "node",
      "id": 441288618,
      "lat": 46.5051914,
      "lon": 6.6831789,
      "tags": {
        "addr:city": "Lutry",
        "addr:housenumber": "107",
        "addr:postcode": "1095",
        "addr:street": "Route de Taillepied",
        "amenity": "restaurant",
        "cuisine": "pizza;regional;international",
        "internet_access": "yes",
        "name": "Restaurant Taillepied",
        "opening_hours": "Mo-Fr 06:00-22:00; Sa 08:00-12:00; Su 08:00-15:00",
        "outdoor_seating": "yes",
        "phone": "+41 21 791 35 68",
        "website": "https://www.restotaillepied.ch/"
      }
    },
    {
      "type": "node",
      "id": 441291891,
      "lat": 46.5000785,
      "lon": 6.6924305,
      "tags": {
        "addr:city": "Lutry",
        "addr:postcode": "1095",
        "addr:street": "Sentier du Bord du Lac",
        "amenity": "fast_food",
        "name": "Buvette de la Plage",
        "opening_hours": "Mar-Apr PH,Mo-Su 10:00-20:00; May-Oct PH,Mo-Su 08:30-22:00"
      }
    },
    {
      "type": "node",
      "id": 442540882,
      "lat": 46.2500673,
      "lon": 7.0167793,
      "tags": {
        "amenity": "restaurant",
        "name": "Le Petit Bouchon",
        "opening_hours": "We-Sa 11:30-14:00,18:30-22:30"
      }
    },
    {
      "type": "node",
      "id": 447957194,
      "lat": 46.6683112,
      "lon": 6.3254351,
      "tags": {
        "amenity": "restaurant",
        "check_date": "2024-08-03",
        "cuisine": "fish;regional",
        "internet_access": "wlan",
        "internet_access:fee": "customers",
        "name": "Hôtel de la truite",
        "payment:cash": "yes",
        "payment:credit_cards": "yes",
        "payment:debit_cards": "yes",
        "tourism": "hotel",
        "website": "https://hoteldelatruite.ch/",
        "wheelchair": "no"
      }
    },
    {
      "type": "node",
      "id": 447958008,
      "lat": 46.6227969,
      "lon": 6.2500274,
      "tags": {
        "amenity": "restaurant",
        "contact:facebook": "BellevueLeRocheray",
        "contact:instagram": "bellevuelerocheray",
        "contact:tripadvisor": "https://www.tripadvisor.fr/Restaurant_Review-g1133395-d4978474-Reviews-Restaurant_Bellevue_le_Rocheray-Le_Sentier_Canton_of_Vaud.html",
        "cuisine": "regional;fish",
        "name": "Bellevue Le Rocheray",
        "phone": "+41 21 845 57 20",
        "website": "https://www.rocheray.ch/fr/restaurant/",
        "wheelchair": "yes"
      }
    },
    {
      "type": "node",
      "id": 454143278,
      "lat": 46.4325565,
      "lon": 6.9759436,
      "tags": {
        "amenity": "restaurant",
        "name": "Plein Roc"
      }
    },
    {
      "type": "node",
      "id": 454181508,
      "lat": 46.4161858,
      "lon": 6.9482956,
      "tags": {
        "addr:city": "Veytaux",
        "addr:housenumber": "12",
        "addr:postcode": "1820",
        "addr:street": "Route du Terravet",
        "amenity": "restaurant",
        "check_date:opening_hours": "2025-07-01",
        "contact:facebook": "https://www.facebook.com/aubergedesonchaux/",
        "contact:instagram": "https://www.instagram.com/auberge_de_sonchaux/",
        "contact:tripadvisor": "https://fr.tripadvisor.ch/Restaurant_Review-g911522-d1171022-Reviews-Auberge_de_Sonchaux_Terravet-Veytaux_Canton_of_Vaud.html",
        "email": "aubergesonchaux@gmail.com",
        "name": "Auberge de Sonchaux",
        "opening_hours": "Apr 01-Jun 30 09:00-22:00; Apr 01-Jun 30 Tu off; Jul 01-Aug 30 09:00-22:00; Sep 01-Oct 30 Mo 09:00-22:15; Sep 01-Oct 30 We-Su 09:00-22:00",
        "phone": "+41 21 963 44 67",
        "source:opening_hours": "website",
        "website": "https://www.aubergedesonchaux.ch/"
      }
    },
    {
      "type": "node",
      "id": 457551755,
      "lat": 46.3494402,
      "lon": 7.1581315,
      "tags": {
        "amenity": "restaurant",
        "cuisine": "regional",
        "internet_access": "wlan",
        "name": "Le Grand Café"
      }
    },
    {
      "type": "node",
      "id": 457551756,
      "lat": 46.3472487,
      "lon": 7.1584391,
      "tags": {
        "amenity": "restaurant",
        "internet_access": "wlan",
        "name": "Le Stüberl"
      }
    },
    {
      "type": "node",
      "id": 457551758,
      "lat": 46.3469529,
      "lon": 7.1590598,
      "tags": {
        "amenity": "restaurant",
        "cuisine": "chinese",
        "internet_access": "wlan",
        "name": "La Marmotte"
      }
    },
    {
      "type": "node",
      "id": 467092403,
      "lat": 46.6141555,
      "lon": 6.5087207,
      "tags": {
        "amenity": "restaurant",
        "name": "La Fleur de Sel"
      }
    },
    {
      "type": "node",
      "id": 469734890,
      "lat": 46.6146013,
      "lon": 6.508002,
      "tags": {
        "amenity": "restaurant",
        "cuisine": "thai",
        "name": "Tawan-Thai",
        "wheelchair": "yes"
      }
    },
    {
      "type": "node",
      "id": 469734891,
      "lat": 46.6141279,
      "lon": 6.5073125,
      "tags": {
        "addr:postcode": "1304",
        "amenity": "restaurant",
        "cuisine": "mexican;pizza",
        "email": "loscuatescossonay@gmail.com",
        "name": "Los Cuates",
        "opening_hours": "Tu-Sa 11:00-23:00",
        "phone": "0218621304",
        "website": "https://www.loscuates.ch",
        "wheelchair": "limited"
      }
    },
    {
      "type": "node",
      "id": 469734892,
      "lat": 46.6144812,
      "lon": 6.5093439,
      "tags": {
        "amenity": "restaurant",
        "name": "Tapascow"
      }
    },
    {
      "type": "node",
      "id": 469734893,
      "lat": 46.6109587,
      "lon": 6.5075383,
      "tags": {
        "amenity": "restaurant",
        "name": "Restaurant du Pré-aux-Moines"
      }
    },
    {
      "type": "node",
      "id": 470228002,
      "lat": 46.4680138,
      "lon": 6.8331165,
      "tags": {
        "amenity": "restaurant",
        "diet:vegetarian": "yes",
        "name": "La Trattoria de Vevey-Corseaux Plage",
        "phone": "+41 21 921 23 48",
        "website": "https://veveycorseauxplage.ch/"
      }
    },
    {
      "type": "node",
      "id": 470542662,
      "lat": 46.7787592,
      "lon": 6.641351,
      "tags": {
        "addr:housenumber": "9",
        "addr:street": "Place Pestalozzi",
        "amenity": "cafe",
        "contact:facebook": "https://www.facebook.com/laplaceyverdon",
        "contact:instagram": "https://www.instagram.com/laplaceyverdon",
        "diet:vegetarian": "yes",
        "email": "info@restaurantdelaplace.ch",
        "name": "Restaurant de la Place",
        "opening_hours": "Mo-Su 08:00-24:00",
        "outdoor_seating": "yes",
        "phone": "+41 24 426 26 36",
        "toilets:wheelchair": "no",
        "website": "https://restaurantdelaplace.ch/",
        "wheelchair": "yes"
      }
    },
    {
      "type": "node",
      "id": 470542664,
      "lat": 46.7787566,
      "lon": 6.6411015,
      "tags": {
        "addr:city": "Yverdon-les-Bains",
        "addr:country": "CH",
        "addr:housenumber": "7",
        "addr:postcode": "1400",
        "addr:street": "Place Pestalozzi",
        "amenity": "restaurant",
        "name": "Giga Tacos",
        "opening_hours": "Mo,Su 10:00-23:00",
        "outdoor_seating": "yes",
        "phone": "+41 76 614 66 44",
        "wheelchair": "limited"
      }
    },
    {
      "type": "node",
      "id": 473787791,
      "lat": 46.4777452,
      "lon": 6.2355953,
      "tags": {
        "amenity": "restaurant",
        "name": "Auberge Communale La Charrue"
      }
    },
    {
      "type": "node",
      "id": 474523028,
      "lat": 46.4394459,
      "lon": 6.8929804,
      "tags": {
        "amenity": "restaurant",
        "name": "L'Ermitage"
      }
    },
    {
      "type": "node",
      "id": 476639875,
      "lat": 46.7456526,
      "lon": 6.400643,
      "tags": {
        "amenity": "restaurant",
        "cuisine": "regional",
        "name": "Buvette des Cernys"
      }
    },
    {
      "type": "node",
      "id": 476664611,
      "lat": 46.4648196,
      "lon": 6.894832,
      "tags": {
        "addr:city": "Blonay",
        "addr:housenumber": "46",
        "addr:street": "Route du Village",
        "amenity": "restaurant",
        "name": "Du Raisin"
      }
    },
    {
      "type": "node",
      "id": 476664619,
      "lat": 46.4661494,
      "lon": 6.8938945,
      "tags": {
        "amenity": "cafe",
        "name": "Yves Compondu"
      }
    },
    {
      "type": "node",
      "id": 476689132,
      "lat": 46.4683794,
      "lon": 6.8937361,
      "tags": {
        "addr:city": "Blonay",
        "addr:housenumber": "1",
        "addr:postcode": "1807",
        "addr:street": "Route de Châtel-Saint-Denis",
        "amenity": "cafe",
        "cuisine": "dessert;coffee_shop;european;pastry;sandwich",
        "description": "Boulangerie pâtisserie confiserie, tea room avec deux terrasses.\nPetite restauration, snacks, pâtisseries, chocolat.",
        "email": "chezyan.blonay@gmail.com",
        "name": "Boulangerie Chez Yan",
        "phone": "+4121 943 24 24"
      }
    },
    {
      "type": "node",
      "id": 476689133,
      "lat": 46.4654424,
      "lon": 6.8950745,
      "tags": {
        "amenity": "restaurant",
        "name": "Pomodoro"
      }
    },
    {
      "type": "node",
      "id": 477535398,
      "lat": 46.5181974,
      "lon": 6.5003219,
      "tags": {
        "addr:city": "Morges",
        "addr:country": "CH",
        "addr:housenumber": "3",
        "addr:postcode": "1110",
        "addr:street": "Chemin de la Grosse-Pierre",
        "amenity": "restaurant",
        "cuisine": "pizza;italian;swiss",
        "description": "Une cuisine méditerranéenne et de saison à déguster dans une ambiance chaleureuse et familiale. Cuisine italienne savoureuse faite de pâtes fraîches et d'un grand choix de pizzas à l'ancienne mais aussi des spécialités suisses.",
        "name": "Pizzeria de la Grosse Pierre",
        "opening_hours": "Mo-Fr 08:00-15:00, 18:00-23:30; Sa 09:00-15:00, 18:00-23:30",
        "outdoor_seating": "yes",
        "phone": "+41 21 801 71 41",
        "smoking": "outside",
        "website": "https://www.pizzeria-grosse-pierre.ch",
        "wheelchair": "yes"
      }
    },
    {
      "type": "node",
      "id": 482724075,
      "lat": 46.8225523,
      "lon": 6.9420068,
      "tags": {
        "amenity": "restaurant",
        "cuisine": "indian",
        "name": "Le Nawab"
      }
    },
    {
      "type": "node",
      "id": 492757951,
      "lat": 46.7046619,
      "lon": 6.5689418,
      "tags": {
        "amenity": "restaurant",
        "name": "La Croix-Blanche",
        "wheelchair": "limited"
      }
    },
    {
      "type": "node",
      "id": 495166812,
      "lat": 46.7252663,
      "lon": 6.5318454,
      "tags": {
        "amenity": "restaurant",
        "name": "Chez Campus"
      }
    },
    {
      "type": "node",
      "id": 495167034,
      "lat": 46.7225235,
      "lon": 6.5322221,
      "tags": {
        "amenity": "restaurant",
        "name": "La Charrue"
      }
    },
    {
      "type": "node",
      "id": 495167063,
      "lat": 46.7237609,
      "lon": 6.5318003,
      "tags": {
        "amenity": "fast_food",
        "cuisine": "chinese",
        "name": "Yi Xiang"
      }
    },
    {
      "type": "node",
      "id": 495167202,
      "lat": 46.7235302,
      "lon": 6.5322489,
      "tags": {
        "amenity": "fast_food",
        "cuisine": "kebab",
        "name": "Globe-Cooker"
      }
    },
    {
      "type": "node",
      "id": 495167250,
      "lat": 46.724271,
      "lon": 6.5319114,
      "tags": {
        "amenity": "restaurant",
        "image": "http://www.comoncity.ch/site3/1015938/resto.jpg",
        "name": "La Croix d'Or"
      }
    },
    {
      "type": "node",
      "id": 495167304,
      "lat": 46.7239874,
      "lon": 6.5318646,
      "tags": {
        "amenity": "restaurant",
        "name": "Le Chasseur",
        "tourism": "hotel"
      }
    },
    {
      "type": "node",
      "id": 495277849,
      "lat": 46.7253333,
      "lon": 6.5312369,
      "tags": {
        "addr:city": "Orbe",
        "addr:housenumber": "2",
        "addr:postcode": "1350",
        "addr:street": "Rue des Remparts",
        "amenity": "restaurant",
        "cuisine": "thai;asian",
        "delivery": "yes",
        "name": "Som Tam Restaurant",
        "opening_hours": "Tu-Fr 11:00-14:00,18:00-22:00; Sa 18:00-22:00",
        "phone": "+41 24 441 69 41",
        "takeaway": "yes",
        "website": "https://www.som-tam.ch",
        "wheelchair": "no"
      }
    },
    {
      "type": "node",
      "id": 495556619,
      "lat": 46.4463219,
      "lon": 6.2329735,
      "tags": {
        "addr:city": "Bassins",
        "addr:housenumber": "3",
        "addr:postcode": "1269",
        "addr:street": "Rue de la Cézille",
        "amenity": "restaurant",
        "cuisine": "italian",
        "name": "Restaurant de la Cézille",
        "phone": "+41223660212",
        "website": "https://www.facebook.com/restaurantlacezille/"
      }
    },
    {
      "type": "node",
      "id": 497304844,
      "lat": 46.5071714,
      "lon": 6.6271334,
      "tags": {
        "amenity": "restaurant",
        "cuisine": "italian;pizza;",
        "diet:vegetarian": "yes",
        "kids_area": "indoor",
        "name": "Boccalino",
        "opening_hours": "Mo-Fr 11:30-14:00, 18:00-22:00; Sa 11:30-22:00; Su 09:00-22:00",
        "phone": "+41 21 616 35 39",
        "website": "https://www.boccalino.ch/",
        "wheelchair": "no"
      }
    },
    {
      "type": "node",
      "id": 499570010,
      "lat": 46.8216755,
      "lon": 6.9392699,
      "tags": {
        "amenity": "cafe",
        "name": "Café du Lion d'Or"
      }
    },
    {
      "type": "node",
      "id": 499570037,
      "lat": 46.8244099,
      "lon": 6.942051,
      "tags": {
        "amenity": "cafe",
        "name": "Buvette du Stade"
      }
    },
    {
      "type": "node",
      "id": 499580170,
      "lat": 46.8215258,
      "lon": 6.9382081,
      "tags": {
        "amenity": "cafe",
        "name": "La Vente"
      }
    },
    {
      "type": "node",
      "id": 499580186,
      "lat": 46.8216282,
      "lon": 6.9390016,
      "tags": {
        "amenity": "restaurant",
        "name": "Chez Gani"
      }
    },
    {
      "type": "node",
      "id": 499589565,
      "lat": 46.8214716,
      "lon": 6.9378861,
      "tags": {
        "amenity": "restaurant",
        "name": "Croix-Blanche"
      }
    },
    {
      "type": "node",
      "id": 499589566,
      "lat": 46.821109,
      "lon": 6.9403528,
      "tags": {
        "amenity": "restaurant",
        "indoor_seating": "yes",
        "name": "Michelangelo",
        "outdoor_seating": "yes"
      }
    },
    {
      "type": "node",
      "id": 505829333,
      "lat": 46.4717899,
      "lon": 6.8763811,
      "tags": {
        "amenity": "cafe",
        "name": "Boulangerie Golay"
      }
    },
    {
      "type": "node",
      "id": 513140695,
      "lat": 46.5112722,
      "lon": 6.4945853,
      "tags": {
        "amenity": "cafe",
        "diet:vegetarian": "yes",
        "indoor_seating": "yes",
        "name": "Le Croco's",
        "opening_hours": "Mo-Su 06:00-21:00",
        "outdoor_seating": "yes",
        "wheelchair": "yes"
      }
    },
    {
      "type": "node",
      "id": 513744625,
      "lat": 46.4705942,
      "lon": 6.8839216,
      "tags": {
        "addr:city": "Saint-Légier-La Chiésaz",
        "addr:housenumber": "78",
        "addr:postcode": "1806",
        "addr:street": "Route des Deux-Villages",
        "amenity": "restaurant",
        "cuisine": "tzatziki;malakoff;pâté_en_croûte;salad;fish;risotto;burger;lamb;beef;cheese;crême_brûlée;cheesecake;tartelette;ice_cream;fondue",
        "name": "Auberge Communale de St-Légier - La Chiésaz",
        "opening_hours": "We-Su 07:00-23:00",
        "phone": "+41 21 943 11 77",
        "tourism": "hotel",
        "website": "http://auberge-st-legier.ch/"
      }
    },
    {
      "type": "node",
      "id": 516402558,
      "lat": 46.4637777,
      "lon": 6.8960499,
      "tags": {
        "addr:city": "Blonay",
        "addr:housenumber": "19",
        "addr:postcode": "1807",
        "addr:street": "Route de Tercier",
        "amenity": "cafe",
        "bakery": "yes",
        "breakfast": "yes",
        "cuisine": "coffee_shop",
        "name": "Au Brignol",
        "opening_hours": "Tu-Su 06:00-18:30",
        "outdoor_seating": "yes",
        "payment:cash": "yes",
        "payment:debit_cards": "no",
        "payment:twint": "no",
        "phone": "+41 21 943 11 50",
        "shop": "bakery",
        "website": "https://www.boulangerie-patisserie-pasini.ch"
      }
    },
    {
      "type": "node",
      "id": 560715501,
      "lat": 46.5268037,
      "lon": 6.6272755,
      "tags": {
        "amenity": "cafe",
        "check_date": "2024-07-10",
        "name": "Café de Beaulieu",
        "opening_hours": "Mo-Fr 06:00-18:00, Sa 06:30-12:00",
        "wheelchair": "limited"
      }
    },
    {
      "type": "node",
      "id": 568735352,
      "lat": 46.5236804,
      "lon": 6.6198721,
      "tags": {
        "amenity": "fast_food",
        "check_date": "2023-06-07",
        "cuisine": "kebab",
        "diet:halal": "yes",
        "drive_through": "no",
        "name": "Big Kebab",
        "opening_hours": "Mo-Sa 09:00-24:00",
        "payment:mastercard": "yes",
        "payment:visa": "yes",
        "wheelchair": "no"
      }
    },
    {
      "type": "node",
      "id": 568735455,
      "lat": 46.5222245,
      "lon": 6.6259932,
      "tags": {
        "amenity": "fast_food",
        "brand": "McDonald's",
        "brand:wikidata": "Q38076",
        "brand:wikipedia": "en:McDonald's",
        "cuisine": "burger",
        "diet:vegetarian": "yes",
        "indoor_seating": "yes",
        "name": "McDonald's",
        "opening_hours": "Mo-We,PH 10:00-24:00, Th 10:00-24:00, Fr-Su 10:00-02:00, Th 10:00-01:00",
        "operator": "McDonald's",
        "outdoor_seating": "yes",
        "smoking": "no",
        "takeaway": "yes",
        "wheelchair": "yes"
      }
    },
    {
      "type": "node",
      "id": 568735467,
      "lat": 46.5235075,
      "lon": 6.626732,
      "tags": {
        "addr:housenumber": "8",
        "addr:postcode": "1003",
        "addr:street": "Place Chauderon",
        "amenity": "fast_food",
        "cuisine": "burger",
        "name": "Au Monopole"
      }
    },
    {
      "type": "node",
      "id": 569968486,
      "lat": 46.4552845,
      "lon": 6.860443,
      "tags": {
        "amenity": "fast_food",
        "cuisine": "pizza",
        "name": "Pizza Riviera"
      }
    },
    {
      "type": "node",
      "id": 598621756,
      "lat": 46.4657019,
      "lon": 6.9044963,
      "tags": {
        "amenity": "restaurant",
        "name": "Le Signal"
      }
    },
    {
      "type": "node",
      "id": 599242026,
      "lat": 46.3165863,
      "lon": 6.9645578,
      "tags": {
        "amenity": "cafe",
        "check_date": "2024-07-14",
        "name": "Café des petits trains"
      }
    },
    {
      "type": "node",
      "id": 599242031,
      "lat": 46.3169115,
      "lon": 6.9645775,
      "tags": {
        "amenity": "restaurant",
        "contact:facebook": "https://www.facebook.com/saadiakhalouk/",
        "name": "Buffet de la Gare",
        "opening_hours": "Mo, Tu 06:30-20:30; We-Fr 06:30-22:00; Su 07:00-20:00",
        "phone": "+41 24 466 26 61",
        "toilets:wheelchair": "no",
        "website": "https://buffetdelagare.business.site/",
        "wheelchair": "yes"
      }
    },
    {
      "type": "node",
      "id": 599242379,
      "lat": 46.3183097,
      "lon": 6.9647246,
      "tags": {
        "amenity": "restaurant",
        "capacity": "100",
        "cuisine": "italian",
        "name": "La Nonna",
        "website": "http://www.la-nonna.ch/"
      }
    },
    {
      "type": "node",
      "id": 599266636,
      "lat": 46.3192798,
      "lon": 6.9715941,
      "tags": {
        "amenity": "restaurant",
        "check_date:opening_hours": "2025-06-17",
        "contact:facebook": "https://www.facebook.com/restaurantdelafontaineaigle",
        "contact:instagram": "https://www.instagram.com/restaurantdelafontaineaigle/",
        "name": "La Fontaine",
        "opening_hours": "Mo-Fr 11:00-14:30,18:00-23:00; Tu 11:00-14:30",
        "phone": "+41 24 466 75 52",
        "website": "https://www.restaurantdelafontaine.ch/"
      }
    },
    {
      "type": "node",
      "id": 599320201,
      "lat": 46.3177087,
      "lon": 6.9692034,
      "tags": {
        "amenity": "restaurant",
        "cuisine": "regional",
        "name": "Café Restaurant du Marché"
      }
    },
    {
      "type": "node",
      "id": 599320212,
      "lat": 46.3182395,
      "lon": 6.9692776,
      "tags": {
        "amenity": "cafe",
        "check_date": "2024-07-14",
        "name": "Hedinger"
      }
    },
    {
      "type": "node",
      "id": 599322180,
      "lat": 46.3191603,
      "lon": 6.9682525,
      "tags": {
        "amenity": "restaurant",
        "name": "Les Alpes",
        "outdoor_seating": "yes"
      }
    },
    {
      "type": "node",
      "id": 599326344,
      "lat": 46.3148066,
      "lon": 6.9488717,
      "tags": {
        "amenity": "restaurant",
        "name": "Auberge du Golf"
      }
    },
    {
      "type": "node",
      "id": 600079001,
      "lat": 46.3171524,
      "lon": 6.9703207,
      "tags": {
        "amenity": "restaurant",
        "cuisine": "chinese",
        "name": "Wing Long"
      }
    },
    {
      "type": "node",
      "id": 600095494,
      "lat": 46.3155894,
      "lon": 6.9742578,
      "tags": {
        "amenity": "restaurant",
        "check_date": "2024-07-14",
        "name": "Caveau du Cloître",
        "phone": "+41 24 525 55 85"
      }
    },
    {
      "type": "node",
      "id": 601493693,
      "lat": 46.3493545,
      "lon": 7.1572912,
      "tags": {
        "amenity": "cafe",
        "internet_access": "wlan",
        "name": "Le Muget",
        "outdoor_seating": "yes",
        "phone": "+41 24 4922642",
        "shop": "bakery",
        "wheelchair": "yes"
      }
    },
    {
      "type": "node",
      "id": 602129131,
      "lat": 46.5177767,
      "lon": 6.6290481,
      "tags": {
        "amenity": "fast_food",
        "brand": "Subway",
        "brand:wikidata": "Q244457",
        "cuisine": "sandwich",
        "indoor_seating": "no",
        "name": "Subway",
        "opening_hours": "Mo-Su,PH 11:00-22:00",
        "outdoor_seating": "no",
        "takeaway": "only"
      }
    },
    {
      "type": "node",
      "id": 603645721,
      "lat": 46.3495661,
      "lon": 6.9984917,
      "tags": {
        "amenity": "restaurant",
        "comment": "Fermé",
        "ele": "1827",
        "name": "Solacyre"
      }
    },
    {
      "type": "node",
      "id": 603704048,
      "lat": 46.5199123,
      "lon": 6.6326487,
      "tags": {
        "amenity": "cafe",
        "brand": "Starbucks",
        "brand:wikidata": "Q37158",
        "brand:wikipedia": "en:Starbucks",
        "cuisine": "coffee_shop",
        "level": "0",
        "name": "Starbucks",
        "official_name": "Starbucks Coffee",
        "takeaway": "yes",
        "wheelchair": "limited",
        "wikimedia_commons": "File:Starbucks Place Saint-François (Lausanne).jpg"
      }
    },
    {
      "type": "node",
      "id": 603722681,
      "lat": 46.5221288,
      "lon": 6.6264987,
      "tags": {
        "amenity": "restaurant",
        "contact:facebook": "https://www.facebook.com/thaiorchideelausannee/",
        "contact:instagram": "https://www.instagram.com/thai_orchidee_lausanne/",
        "cuisine": "asian",
        "indoor_seating": "yes",
        "name": "Thaï Orchidée",
        "opening_hours": "Mo-Fr 11:30-14:30, 18:30-23:00; Sa, Su 11:30-23:30",
        "outdoor_seating": "yes",
        "phone": "+41 21 312 52 03",
        "website": "https://thaiorchideelausanne.ch/",
        "wheelchair": "yes"
      }
    },
    {
      "type": "node",
      "id": 609128005,
      "lat": 46.4728449,
      "lon": 6.7967619,
      "tags": {
        "amenity": "restaurant",
        "cuisine": "regional",
        "name": "Café du Raisin"
      }
    },
    {
      "type": "node",
      "id": 611235528,
      "lat": 46.5334098,
      "lon": 6.6614449,
      "tags": {
        "addr:city": "Lausanne",
        "addr:housenumber": "77",
        "addr:postcode": "1010",
        "addr:street": "Route d'Oron",
        "amenity": "restaurant",
        "name": "Coteau-Fleuri",
        "phone": "+41 21 653 04 70"
      }
    },
    {
      "type": "node",
      "id": 617593908,
      "lat": 46.4351225,
      "lon": 6.2183601,
      "tags": {
        "addr:housenumber": "6",
        "addr:street": "Place du Village",
        "amenity": "restaurant",
        "name": "Aux Trois Suisse",
        "opening_hours": "Mo, Th, Fr 11:00-14:30, 17:30-23:00; Sa 11:00-23:00; Su 11:00-23:00",
        "phone": "+41 22 366 15 80"
      }
    },
    {
      "type": "node",
      "id": 617832677,
      "lat": 46.8833954,
      "lon": 6.6232291,
      "tags": {
        "amenity": "restaurant",
        "cuisine": "regional",
        "name": "La Ronde Noire"
      }
    },
    {
      "type": "node",
      "id": 618650775,
      "lat": 46.3420715,
      "lon": 6.9911703,
      "tags": {
        "amenity": "restaurant",
        "cuisine": "regional",
        "name": "Chalet-Restaurant de Prafandaz"
      }
    },
    {
      "type": "node",
      "id": 618886594,
      "lat": 46.841649,
      "lon": 6.481159,
      "tags": {
        "amenity": "restaurant",
        "cuisine": "regional",
        "name": "Le Marais"
      }
    },
    {
      "type": "node",
      "id": 619398034,
      "lat": 46.4545903,
      "lon": 6.1123587,
      "tags": {
        "amenity": "restaurant",
        "name": "Restaurant de la Givrine"
      }
    },
    {
      "type": "node",
      "id": 629119177,
      "lat": 46.5167265,
      "lon": 6.6358505,
      "tags": {
        "amenity": "restaurant",
        "check_date:opening_hours": "2024-04-18",
        "cuisine": "lebanese",
        "diet:vegetarian": "yes",
        "indoor_seating": "yes",
        "name": "Oh! Liban",
        "opening_hours": "Mo-We 11:30-14:00; Th-Fr 11:30-14:00,18:30-22:00; Sa 18:30-22:00",
        "outdoor_seating": "yes",
        "phone": "+41 21 311 57 56",
        "start_date": "2009-08-17",
        "website": "https://ohliban.ch/"
      }
    },
    {
      "type": "node",
      "id": 629166764,
      "lat": 46.5175607,
      "lon": 6.6376677,
      "tags": {
        "addr:city": "Lausanne",
        "addr:housenumber": "29",
        "addr:postcode": "1003",
        "addr:street": "Rue Beau-Séjour",
        "amenity": "restaurant",
        "indoor_seating": "yes",
        "name": "Le Lyrique",
        "opening_hours": "Mo-Fr 08:00-24:00, Sa 11:00-15:00,17:00-24:00",
        "outdoor_seating": "yes",
        "website": "https://www.lelyrique.ch/"
      }
    },
    {
      "type": "node",
      "id": 632570417,
      "lat": 46.4086896,
      "lon": 7.1029445,
      "tags": {
        "amenity": "restaurant"
      }
    },
    {
      "type": "node",
      "id": 649777568,
      "lat": 46.4552349,
      "lon": 6.3370974,
      "tags": {
        "amenity": "restaurant",
        "wheelchair": "yes"
      }
    },
    {
      "type": "node",
      "id": 652559287,
      "lat": 46.5164356,
      "lon": 6.6335973,
      "tags": {
        "amenity": "restaurant",
        "check_date": "2024-02-16",
        "contact:facebook": "https://www.facebook.com/pastaesfizithetastelab",
        "contact:instagram": "pastaesfizi_ouchy3",
        "cuisine": "italian",
        "name": "Pasta e Sfizi",
        "opening_hours": "Mo-Fr 11:30-14:00,18:30-23:00; Sa 18:30-24:00",
        "phone": "+41 21 323 23 50",
        "website": "https://pastaesfizi.ch/"
      }
    },
    {
      "type": "node",
      "id": 656771681,
      "lat": 46.5102818,
      "lon": 6.4289823,
      "tags": {
        "amenity": "restaurant",
        "name": "Auberge Croix Fédérale"
      }
    },
    {
      "type": "node",
      "id": 661252135,
      "lat": 46.7784326,
      "lon": 6.6403862,
      "tags": {
        "addr:city": "Yverdon-les-Bains",
        "addr:country": "CH",
        "addr:housenumber": "1",
        "addr:postcode": "1400",
        "addr:street": "Rue du Four",
        "amenity": "restaurant",
        "cuisine": "french",
        "email": "contact@gerberwyss.ch",
        "name": "GERBER WYSS Restaurant",
        "opening_hours": "Tu-Sa 08:00-23:00; Su 08:00-12:00",
        "phone": "+41 24 426 10 10",
        "smoking": "outside",
        "toilets:wheelchair": "no",
        "website": "https://www.gerberwyss.ch/restaurant",
        "wheelchair": "yes"
      }
    },
    {
      "type": "node",
      "id": 679202865,
      "lat": 46.4599474,
      "lon": 6.2085255,
      "tags": {
        "amenity": "restaurant",
        "name": "Auberge de l'Union"
      }
    },
    {
      "type": "node",
      "id": 679202868,
      "lat": 46.4549268,
      "lon": 6.2186227,
      "tags": {
        "addr:city": "Arzier-Le Muids",
        "addr:housenumber": "1",
        "addr:postcode": "1273",
        "addr:street": "Route d'Arzier",
        "amenity": "restaurant",
        "name": "Café Tivoli"
      }
    },
    {
      "type": "node",
      "id": 699989961,
      "lat": 46.5513274,
      "lon": 6.4288461,
      "tags": {
        "amenity": "restaurant",
        "name": "Auberge de la Couronne"
      }
    },
    {
      "type": "node",
      "id": 718707720,
      "lat": 46.5147317,
      "lon": 6.6086513,
      "tags": {
        "addr:housenumber": "51",
        "addr:postcode": "1007",
        "amenity": "restaurant",
        "contact:instagram": "restaurant.du.tennis",
        "cuisine": "international;italian",
        "email": "seasidethemesstudio@gmail.com",
        "name": "Restaurant du Tennis",
        "opening_hours": "Mo-Fr 11:30-14:00, 18:00-21:30; Sa 11:30-14:00, 18:30-21:30; Su 11:30-14:00",
        "phone": "+41 21 616 26 87",
        "website": "http://restaurantdutennislausanne.ch/"
      }
    },
    {
      "type": "node",
      "id": 728370371,
      "lat": 46.5173336,
      "lon": 6.6120673,
      "tags": {
        "addr:city": "Lausanne",
        "addr:housenumber": "1",
        "addr:postcode": "1007",
        "addr:street": "Chemin de Contigny",
        "amenity": "restaurant",
        "cuisine": "brazilian",
        "diet:meat": "yes",
        "name": "Le Mont d'or",
        "opening_hours": "Mo-Sa 10:30-14:30,17:30-23:00; Su 11:00-23:00",
        "phone": "+41 21 617 00 10",
        "website": "https://www.restaurant-lemontdor.ch/"
      }
    },
    {
      "type": "node",
      "id": 741600592,
      "lat": 46.4704642,
      "lon": 6.8505588,
      "tags": {
        "amenity": "restaurant",
        "name": "Le Colibri",
        "opening_hours": "Mo-Fr 06:30-21:00"
      }
    },
    {
      "type": "node",
      "id": 747008871,
      "lat": 46.4307074,
      "lon": 6.9091456,
      "tags": {
        "addr:city": "Montreux",
        "addr:housenumber": "6",
        "addr:postcode": "1820",
        "addr:street": "Quai Ernest Ansermet",
        "amenity": "restaurant",
        "cuisine": "arab;middle_eastern;persian;moroccan;lebanese",
        "indoor_seating": "yes",
        "name": "Le Palais Oriental",
        "opening_hours": "Mo closed; Tu-Su 11:30-22:00",
        "outdoor_seating": "yes",
        "phone": "+41 219631271",
        "website": "https://www.palaisoriental.ch"
      }
    },
    {
      "type": "node",
      "id": 747697701,
      "lat": 46.8061677,
      "lon": 6.7275381,
      "tags": {
        "addr:city": "Yvonand",
        "addr:housenumber": "34",
        "addr:postcode": "1462",
        "addr:street": "Avenue des Pins",
        "amenity": "restaurant",
        "cuisine": "regional",
        "name": "Le Colvert",
        "opening_hours": "Mo-Su 11:00-14:00,18:00-23:00",
        "outdoor_seating": "yes",
        "phone": "+41 24 430 19 65",
        "website": "https://lecolvert.ch/",
        "wheelchair": "yes"
      }
    },
    {
      "type": "node",
      "id": 747699697,
      "lat": 46.8008169,
      "lon": 6.7350015,
      "tags": {
        "addr:city": "Yvonand",
        "addr:housenumber": "19",
        "addr:postcode": "1462",
        "addr:street": "Avenue de Mordagne",
        "amenity": "restaurant",
        "cuisine": "asian",
        "name": "Vivi kitchen",
        "opening_hours": "Tu-Fr 11:30-14:00, 18:30-22:30; Sa 18:30-23:00; Su 11:30-14:30, 18:30-22:00",
        "phone": "+41 24 430 12 69",
        "website": "https://www.vivikitchen-yvonand.com"
      }
    },
    {
      "type": "node",
      "id": 761256050,
      "lat": 46.4859863,
      "lon": 6.4193325,
      "tags": {
        "amenity": "restaurant",
        "name": "Auberge Communale"
      }
    },
    {
      "type": "node",
      "id": 761481387,
      "lat": 46.4863808,
      "lon": 6.4193481,
      "tags": {
        "addr:city": "Etoy",
        "addr:housenumber": "1",
        "addr:postcode": "1163",
        "addr:street": "Chemin Neuf",
        "amenity": "restaurant",
        "name": "Cinecitta"
      }
    },
    {
      "type": "node",
      "id": 761481389,
      "lat": 46.4858489,
      "lon": 6.4189672,
      "tags": {
        "amenity": "cafe"
      }
    },
    {
      "type": "node",
      "id": 764863933,
      "lat": 46.9076093,
      "lon": 7.0707111,
      "tags": {
        "addr:city": "Faoug",
        "addr:housenumber": "11",
        "addr:postcode": "1595",
        "addr:street": "Route du Nouveau Port",
        "amenity": "restaurant",
        "name": "Werft",
        "opening_hours": "We-Su 11:30-14:00,17:30-23:30",
        "phone": "+41 26 411 00 22",
        "website": "https://restaurant-werft.ch/",
        "wheelchair": "yes"
      }
    },
    {
      "type": "node",
      "id": 766691083,
      "lat": 46.3816054,
      "lon": 6.2284792,
      "tags": {
        "addr:city": "Nyon",
        "addr:country": "CH",
        "addr:housenumber": "62",
        "addr:postcode": "1260",
        "addr:street": "Route de Clémenty",
        "amenity": "restaurant",
        "name": "First Pizza",
        "toilets:wheelchair": "no",
        "wheelchair": "yes"
      }
    },
    {
      "type": "node",
      "id": 768551399,
      "lat": 46.3317477,
      "lon": 6.9589707,
      "tags": {
        "amenity": "restaurant",
        "name": "Le Torrent"
      }
    },
    {
      "type": "node",
      "id": 768551444,
      "lat": 46.3297275,
      "lon": 6.9613007,
      "tags": {
        "amenity": "restaurant",
        "name": "Auberge de la Couronne"
      }
    },
    {
      "type": "node",
      "id": 786014815,
      "lat": 46.3602332,
      "lon": 6.97735,
      "tags": {
        "addr:city": "Corbeyrier",
        "addr:housenumber": "22",
        "addr:postcode": "1856",
        "addr:street": "Route des Agittes",
        "amenity": "restaurant",
        "name": "Café de Luan",
        "phone": "+41 24 466 81 15",
        "website": "https://www.cafedeluan.ch/"
      }
    },
    {
      "type": "node",
      "id": 811598973,
      "lat": 46.6628301,
      "lon": 6.2640212,
      "tags": {
        "amenity": "restaurant",
        "cuisine": "regional",
        "name": "Les Playnoz",
        "tourism": "guest_house"
      }
    },
    {
      "type": "node",
      "id": 828022789,
      "lat": 46.7474505,
      "lon": 6.4258041,
      "tags": {
        "amenity": "restaurant",
        "cuisine": "regional",
        "name": "La Thiolle"
      }
    },
    {
      "type": "node",
      "id": 828145644,
      "lat": 46.6860837,
      "lon": 6.6475107,
      "tags": {
        "amenity": "restaurant",
        "name": "Auberge du Lion d'Or"
      }
    },
    {
      "type": "node",
      "id": 828159628,
      "lat": 46.7795005,
      "lon": 6.6386428,
      "tags": {
        "addr:city": "Yverdon-les-Bains",
        "addr:country": "CH",
        "addr:postcode": "1400",
        "addr:street": "Rue du Pré",
        "amenity": "fast_food",
        "cuisine": "kebab",
        "indoor_seating": "yes",
        "name": "Le Monde Snack",
        "opening_hours": "Mo-Sa 10:00-23:30; Su 10:00-22:30",
        "outdoor_seating": "yes",
        "wheelchair": "yes"
      }
    },
    {
      "type": "node",
      "id": 828159641,
      "lat": 46.7794031,
      "lon": 6.6385418,
      "tags": {
        "addr:city": "Yverdon-les-Bains",
        "addr:country": "CH",
        "addr:housenumber": "10",
        "addr:postcode": "1400",
        "addr:street": "Rue du Pré",
        "amenity": "restaurant",
        "cuisine": "italian;pizza",
        "delivery": "no",
        "indoor_seating": "yes",
        "name": "Don Camillo",
        "opening_hours": "Mo 10:00-23:00; Tu-Sa 09:00-23:00",
        "outdoor_seating": "yes",
        "phone": "+41 24 425 42 82",
        "website": "http://don-camillo.ch/",
        "wheelchair": "no"
      }
    },
    {
      "type": "node",
      "id": 833359589,
      "lat": 46.799685,
      "lon": 6.7458343,
      "tags": {
        "addr:city": "Yvonand",
        "addr:housenumber": "14",
        "addr:postcode": "1462",
        "addr:street": "Grand'Rue",
        "amenity": "restaurant",
        "cuisine": "mediterranean",
        "diet:seasonal": "yes",
        "name": "Hôtel de Ville",
        "opening_hours": "Tu-Su 10:00-20:00",
        "outdoor_seating": "yes",
        "phone": "+41 24 430 11 51",
        "website": "https://hoteldeville-yvonand.ch/"
      }
    },
    {
      "type": "node",
      "id": 840047149,
      "lat": 46.2737884,
      "lon": 7.0605125,
      "tags": {
        "amenity": "restaurant",
        "name": "Buffet de la Gare",
        "phone": "+41 24 498 1413",
        "website": "https://www.buffet-gryon.ch/"
      }
    },
    {
      "type": "node",
      "id": 847533632,
      "lat": 46.5435509,
      "lon": 6.6475651,
      "tags": {
        "addr:city": "Lausanne",
        "addr:housenumber": "113",
        "addr:postcode": "1010",
        "addr:street": "Chemin Isabelle-de-Montolieu",
        "amenity": "restaurant",
        "cuisine": "regional;pizza",
        "email": "info@votralausanne.ch",
        "name": "Votra Lausanne",
        "phone": "+41 21 652 59 59",
        "website": "https://votralausanne.ch"
      }
    },
    {
      "type": "node",
      "id": 849897780,
      "lat": 46.777777,
      "lon": 6.6421493,
      "tags": {
        "addr:city": "Yverdon-les-Bains",
        "addr:country": "CH",
        "addr:housenumber": "2",
        "addr:postcode": "1400",
        "addr:street": "Rue du Valentin",
        "amenity": "restaurant",
        "cuisine": "italian",
        "name": "Bar du Coq",
        "opening_hours": "Mo-We 06:00-23:30; Th 06:00-01:00; Fr 06:00-02:00; Sa 07:00-02:00; Su 07:00-24:00",
        "outdoor_seating": "yes",
        "phone": "+41 24 524 30 36",
        "toilets:wheelchair": "no",
        "website": "https://www.barducoq.ch/",
        "wheelchair": "limited"
      }
    },
    {
      "type": "node",
      "id": 849910711,
      "lat": 46.3521807,
      "lon": 7.0082003,
      "tags": {
        "amenity": "cafe",
        "cuisine": "regional",
        "name": "Ferme du Témeley",
        "opening_hours": "PH,Mo-Fr 10:00-16:30; Sa,Su 10:00-17:00",
        "outdoor_seating": "yes"
      }
    },